     2.11           OBSERVATION DATA    G (GPS)             RINEX VERSION / TYPE
teqc  2013Mar15                         20170905 02:30:37UTCPGM / RUN BY / DATE
Linux 2.4.21-27.ELsmp|Opteron|gcc -static|Linux x86_64|=+   COMMENT
     2.11           OBSERVATION DATA    M (MIXED)           COMMENT
teqc  2009Mar23                         20170902 01:05:02UTCCOMMENT
Linux 2.4.20-8|Pentium IV|gcc -static|Linux|486/DX+         COMMENT
BIT 2 OF LLI FLAGS DATA COLLECTED UNDER A/S CONDITION       COMMENT
WINN RACS-GSD 974000 Winnipeg MB Canada                     MARKER NAME
OPERATOR            NRCan/GEODETIC SURVEY OF CANADA         OBSERVER / AGENCY
618-02361           TPS NET-G3A         3.6 Dec,04,2012 p1  REC # / TYPE / VERS
523                 AOAD/M_T        SCIS                    ANT # / TYPE
  -520168.9400 -4083473.0800  4855843.7200                  APPROX POSITION XYZ
        0.0000        0.0000        0.0000                  ANTENNA: DELTA H/E/N
     1     1                                                WAVELENGTH FACT L1/2
     8    L1    L2    C1    C2    P1    P2    S1    S2      # / TYPES OF OBSERV
    30.0000                                                 INTERVAL
    18                                                      LEAP SECONDS
RINEXED from Topcon TPS-binary: ken.macleod@nrcan.gc.ca     COMMENT
Forced Modulo Decimation to 30 seconds                      COMMENT
This data is subject to the Open Government Licence -Canada COMMENT
http://open.canada.ca/en/open-government-licence-canada     COMMENT
 SNR is mapped to RINEX snr flag value [0-9]                COMMENT
  L1 & L2: min(max(int(snr_dBHz/6), 0), 9)                  COMMENT
pseudorange smoothing corrections not applied               COMMENT
teqc edited: all GLONASS satellites excluded                COMMENT
  2017     9     2     0     0    0.0000000     GPS         TIME OF FIRST OBS
                                                            END OF HEADER
 17  9  2  0  0  0.0000000  0 11G18G04G10G20G24G32G21G08G13G15G27
 108092374.25647  84227833.76346  20569284.895                    20569283.294
  20569279.050          47.750          41.500
 119488118.89947  93107627.55045  22737830.353                    22737829.310
  22737826.708          44.000          30.750
 113509350.08148  88448857.21447  21600099.584    21600098.177    21600098.980
  21600097.938          50.500          47.000
 119079674.14046  92789364.13444  22660098.858                    22660097.569
  22660094.327          41.250          26.000
 119681454.44646  93258285.39147  22774616.707    22774616.168    22774616.228
  22774616.303          41.000          42.000
 130182836.05046 101441175.09546  24772968.340    24772968.761    24772968.416
  24772969.095          40.500          38.000
 111013535.32948  86504069.65147  21125166.123                    21125164.495
  21125160.474          51.000          43.000
 126515723.32447  98583687.82546  24075138.838    24075138.033    24075138.236
  24075136.499          43.750          37.000
 125097073.04846  97478255.56843  23805172.624                    23805171.552
  23805167.991          39.750          19.000
 112764437.29648  87868405.14347  21458349.024    21458344.706    21458348.189
  21458344.265          50.750          44.000
 117728869.18347  91736785.26146  22403053.403    22403050.450    22403052.305
  22403050.269          45.500          41.000
 17  9  2  0  0 30.0000000  0 11G18G04G10G20G24G32G21G08G13G15G27
 108075926.02848  84215016.97046  20566154.813                    20566153.525
  20566148.967          48.500          41.500
 119530301.12047  93140496.80144  22745857.399                    22745855.445
  22745853.428          45.500          29.750
 113442399.16748  88396687.70247  21587359.620    21587357.539    21587359.109
  21587357.744          49.750          47.000
 119168788.62446  92858803.96844  22677057.027                    22677054.968
  22677052.582          41.250          26.000
 119605558.99647  93199146.14047  22760174.666    22760174.021    22760174.571
  22760174.478          42.000          42.000
 130071297.45546 101354262.05046  24751743.153    24751743.849    24751743.074
  24751743.684          40.250          38.000
 111045361.15048  86528868.98347  21131222.294                    21131220.823
  21131216.575          50.250          42.500
 126458166.20047  98538838.17046  24064186.211    24064184.629    24064185.093
  24064184.706          43.500          36.000
 125199024.70446  97557698.50542  23824573.323                    23824572.129
  23824568.451          39.250          17.250
 112834314.91848  87922855.22547  21471646.346    21471641.656    21471645.585
  21471641.512          52.000          43.000
 117733304.16147  91740241.08646  22403897.392    22403894.130    22403896.675
  22403894.078          45.500          41.000
 17  9  2  0  1  0.0000000  0 11G18G04G10G20G24G32G21G08G13G15G27
 108059761.63448  84202421.35347  20563078.937                    20563077.573
  20563072.999          48.500          42.000
 119573007.96247  93173774.85944  22753983.557                    22753981.706
  22753979.606          42.500          29.000
 113375694.10548  88344709.76447  21574666.178    21574663.915    21574665.754
  21574663.789          50.750          47.000
 119258069.37746  92928373.36544  22694046.396                    22694045.059
  22694041.474          41.250          26.000
 119530061.88547  93140317.27847  22745808.482    22745807.292    22745807.973
  22745806.372          42.750          42.000
 129959854.23846 101267423.32646  24730536.578    24730536.659    24730536.219
  24730536.282          40.500          38.000
 111077621.64048  86554007.02047  21137361.165                    21137359.575
  21137355.513          50.250          42.250
 126401102.42747  98494372.96346  24053327.551    24053327.690    24053326.561
  24053326.176          43.500          37.000
 125301191.26246  97637308.85842  23844014.810                    23844013.947
  23844010.808          40.000          17.250
 112904605.14648  87977626.82547  21485021.881    21485017.725    21485021.349
  21485017.278          49.750          44.000
 117738353.76947  91744175.84346  22404858.667    22404855.299    22404857.790
  22404854.347          46.250          41.000
 17  9  2  0  1 30.0000000  0 11G18G04G10G20G24G32G21G08G13G15G27
 108043881.13048  84190046.94746  20560056.947                    20560055.609
  20560051.105          49.500          41.750
 119616237.53247  93207460.22944  22762210.133                    22762208.883
  22762205.175          43.500          28.250
 113309235.74448  88292924.05247  21562019.504    21562017.051    21562019.153
  21562016.962          50.750          47.000
 119347515.31246  92998071.47944  22711067.594                    22711065.514
  22711063.597          40.500          26.000
 119454965.84847  93081800.93847  22731518.221    22731517.075    22731517.875
  22731516.878          43.250          42.000
 129848508.18046 101180660.29746  24709348.507    24709348.560    24709348.956
  24709347.486          40.750          38.000
 111110316.87548  86579483.82447  21143582.809                    21143581.266
  21143577.461          50.750          42.250
 126344533.63547  98450293.44346  24042562.891    24042562.775    24042562.400
  24042561.924          44.750          38.000
 125403570.50746  97717084.97842  23863496.729                    23863496.415
  23863492.349          40.000          17.250
 112975305.57448  88032718.06947  21498475.752    21498471.618    21498475.088
  21498471.237          50.750          43.000
 117744017.60347  91748589.21446  22405936.484    22405932.784    22405935.791
  22405931.917          46.750          41.000
 17  9  2  0  2  0.0000000  0 11G18G04G10G20G24G32G21G08G13G15G27
 108028285.11048  84177894.21646  20557089.047                    20557087.582
  20557083.254          49.500          41.250
 119659988.21647  93241551.66344  22770535.736                    22770534.412
  22770531.922          42.250          28.000
 113243025.41548  88241331.60947  21549419.800    21549417.313    21549419.349
  21549417.494          49.250          46.000
 119437126.20846  93067898.12444  22728119.715                    22728118.041
  22728115.806          40.500          26.000
 119380274.85847  93023600.20547  22717304.550    22717303.692    22717304.235
  22717303.359          43.000          42.000
 129737261.57846 101093974.77246  24688179.206    24688179.175    24688179.173
  24688177.586          41.250          38.000
 111143447.54348  86605299.92047  21149887.140                    21149885.533
  21149882.183          50.000          42.250
 126288462.50547  98406601.69346  24031893.629    24031891.379    24031891.957
  24031892.211          43.750          38.000
 125506159.98746  97797024.89543  23883018.971                    23883017.936
  23883013.836          39.250          18.000
 113046414.38548  88088127.52647  21512007.226    21512003.317    21512006.362
  21512002.693          51.000          44.000
 117750295.73147  91753481.28546  22407131.055    22407126.650    22407130.027
  22407126.750          44.750          40.000
 17  9  2  0  2 30.0000000  0 11G18G04G10G20G24G32G21G08G13G15G27
 108012974.17948  84165963.63046  20554175.587                    20554174.120
  20554169.813          49.500          41.000
 119704258.64447  93276048.08544  22778960.213                    22778958.748
  22778955.831          43.750          28.250
 113177064.34448  88189933.39147  21536868.086    21536865.185    21536867.451
  21536865.378          50.250          46.000
 119526901.64946  93137852.99244  22745203.443                    22745201.125
  22745200.107          40.500          26.250
 119305991.56447  92965717.17047  22703168.955    22703167.977    22703167.953
  22703166.973          42.000          42.000
 129626116.73946 101007368.54946  24667028.244    24667028.804    24667027.944
  24667027.881          39.750          38.000
 111177013.93948  86631455.54747  21156274.681                    21156273.025
  21156269.396          50.000          42.000
 126232891.23047  98363299.43646  24021317.331    24021317.054    24021316.583
  24021316.202          43.750          38.000
 125608958.01146  97877127.30443  23902580.648                    23902579.106
  23902576.308          40.250          18.000
 113117929.53548  88143853.60747  21525616.157    21525612.101    21525615.629
  21525611.420          49.250          43.000
 117757188.16947  91758852.02847  22408442.474    22408439.059    22408441.753
  22408438.718          47.250          42.000
 17  9  2  0  3  0.0000000  0 11G18G04G10G20G24G32G21G08G13G15G27
 107997949.31048  84154255.95346  20551316.217                    20551315.063
  20551310.759          49.500          41.500
 119749047.59247  93310948.56044  22787483.448                    22787481.365
  22787479.177          44.750          28.500
 113111353.96348  88138730.51247  21524363.729    21524361.427    21524363.046
  21524361.673          50.500          47.000
 119616840.83346  93207935.44344  22762317.500                    22762316.240
  22762315.338          39.000          26.000
 119232119.59547  92908154.65146  22689111.827    22689109.443    22689111.191
  22689109.434          43.250          41.000
 129515075.78546 100920843.29446  24645897.550    24645897.758    24645896.386
  24645897.459          39.250          39.000
 111211016.48948  86657951.03247  21162745.239                    21162743.588
  21162739.898          50.750          42.500
 126177822.08147  98320388.45346  24010837.924    24010838.697    24010837.324
  24010836.884          42.750          38.000
 125711962.44446  97957390.54443  23922181.277                    23922180.850
  23922176.745          39.750          18.500
 113189848.88248  88199894.65547  21539302.002    21539297.932    21539301.420
  21539297.437          49.250          43.000
 117764694.93347  91764701.44547  22409870.703    22409868.364    22409869.169
  22409868.355          45.500          42.000
 17  9  2  0  3 30.0000000  0 11G18G04G10G20G24G32G21G08G13G15G27
 107983209.76448  84142770.60146  20548511.499                    20548510.150
  20548505.688          49.250          41.250
 119794351.75247  93346250.50644  22796104.016                    22796103.516
  22796100.735          43.250          28.750
 113045894.03348  88087722.79747  21511907.290    21511904.906    21511906.622
  21511905.329          50.750          47.000
 119706941.51446  93278143.73044  22779463.502                    22779462.183
  22779460.296          40.500          25.500
 119158661.13247  92850914.33546  22675133.303    22675131.344    22675133.013
  22675130.801          43.000          41.000
 129404139.66746 100834399.70446  24624786.741    24624788.320    24624786.568
  24624788.237          38.750          39.000
 111245453.40648  86684784.98746  21169298.305                    21169296.914
  21169292.818          50.250          41.750
 126123256.24946  98277869.67946  24000453.809    24000454.009    24000451.889
  24000452.701          40.500          37.000
 125815169.80346  98037811.88843  23941821.086                    23941820.093
  23941816.830          39.750          18.500
 113262169.32648  88256248.24147  21553064.174    21553060.004    21553063.349
  21553059.421          50.250          43.000
 117772814.46947  91771028.35947  22411415.847    22411414.056    22411414.942
  22411413.234          46.250          43.000
 17  9  2  0  4  0.0000000  0 11G18G04G10G20G24G32G21G08G13G15G27
 107968756.41248  84131508.25146  20545761.174                    20545759.667
  20545755.394          48.500          41.500
 119840169.76647  93381952.83844  22804823.234                    22804822.335
  22804819.945          43.000          28.750
 112980685.87648  88036911.25547  21499498.631    21499496.336    21499497.844
  21499496.519          50.750          47.000
 119797203.45947  93348477.66644  22796639.887                    22796637.891
  22796636.949          42.250          25.500
 119085619.05847  92793998.48347  22661233.723    22661231.438    22661233.162
  22661232.316          43.000          42.000
 129293310.72346 100748039.63846  24603695.343    24603697.630    24603695.839
  24603696.937          37.000          39.000
 111280325.55048  86711958.07947  21175934.463                    21175932.865
  21175928.583          51.000          42.000
 126069195.61846  98235744.55346  23990165.594    23990167.024    23990165.058
  23990165.562          38.750          37.000
 125918577.97446  98118389.65343  23961499.176                    23961498.363
  23961494.621          39.500          18.250
 113334888.99348  88312912.91747  21566902.358    21566897.550    21566901.645
  21566897.369          50.000          43.000
 117781546.79747  91777832.77147  22413077.576    22413075.810    22413076.798
  22413075.539          46.250          43.000
 17  9  2  0  4 30.0000000  0 11G18G04G10G20G24G32G21G08G13G15G27
 107954588.85347  84120468.59646  20543065.198                    20543063.671
  20543059.465          47.000          41.500
 119886498.98447  93418053.52944  22813639.502                    22813638.509
  22813635.899          44.000          28.750
 112915729.79148  87986296.11747  21487137.706    21487135.435    21487137.110
  21487135.651          51.500          47.000
 119887625.50847  93418936.36044  22813847.531                    22813845.910
  22813844.517          42.500          26.000
 119012996.10947  92737409.23047  22647413.609    22647412.726    22647413.330
  22647412.575          43.750          43.000
 129182590.12445 100661763.99146  24582626.188    24582627.431    24582624.892
  24582628.124          35.500          39.000
 111315632.01648  86739469.60346  21182652.841                    21182651.356
  21182647.328          49.250          41.750
 126015641.55646  98194014.16646  23979974.754    23979975.171    23979972.787
  23979974.900          39.250          38.000
 126022184.09346  98199121.71443  23981214.698                    23981213.673
  23981210.178          39.750          18.000
 113408004.73348  88369886.22247  21580815.927    21580811.482    21580815.266
  21580810.941          49.250          43.000
 117790890.79347  91785113.82847  22414855.402    22414853.629    22414854.943
  22414853.115          44.750          43.000
 17  9  2  0  5  0.0000000  0 11G18G04G10G20G24G32G21G08G13G15G27
 107940707.07148  84109651.63046  20540423.448                    20540422.240
  20540417.807          50.750          41.500
 119933337.27947  93454550.88844  22822552.323                    22822551.343
  22822548.746          43.250          29.000
 112851026.49548  87935877.96647  21474825.206    21474823.062    21474824.589
  21474823.094          51.250          47.000
 119978206.29447  93489518.75644  22831084.222                    22831083.608
  22831080.515          43.250          27.000
 118940794.46047  92681148.24947  22633673.950    22633673.271    22633673.754
  22633673.328          43.250          43.000
 129071979.39045 100575573.96446  24561576.197    24561578.444    24561577.107
  24561577.780          35.250          37.000
 111351372.52648  86767319.34447  21189454.114                    21189452.481
  21189448.864          52.000          42.000
 125962595.72846  98152679.80746  23969880.161    23969882.254    23969879.187
  23969881.081          39.500          38.000
 126125985.52046  98280005.97043  24000967.683                    24000966.391
  24000962.377          40.500          18.000
 113481514.06448  88427166.22247  21594804.510    21594799.985    21594803.689
  21594799.362          52.000          43.000
 117800845.71547  91792870.92247  22416749.945    22416747.289    22416748.706
  22416747.681          46.750          43.000
 17  9  2  0  5 30.0000000  0 11G18G04G10G20G24G32G21G08G13G15G27
 107927111.75448  84099057.88446  20537836.380                    20537834.933
  20537830.791          48.750          41.500
 119980683.05747  93491443.70444  22831562.012                    22831561.215
  22831558.942          43.750          29.000
 112786577.16648  87885657.73047  21462560.730    21462558.571    21462560.215
  21462558.579          51.250          47.000
 120068945.09347  93560224.28344  22848352.138                    22848350.215
  22848348.106          45.000          27.250
 118869017.83446  92625218.45247  22620015.460    22620014.802    22620014.423
  22620014.452          41.750          44.000
 128961480.89046 100489471.36946  24540550.022    24540550.496    24540549.348
  24540550.377          36.250          37.000
 111387547.39848  86795507.54546  21196338.057                    21196336.517
  21196332.557          50.500          41.750
 125910060.27046  98111743.10546  23959883.380    23959884.458    23959883.203
  23959883.525          39.250          38.000
 126229979.78346  98361040.46042  24020757.553                    24020756.589
  24020751.599          40.500          17.000
 113555414.94748  88484751.31347  21608867.335    21608862.699    21608866.743
  21608862.513          50.250          43.000
 117811411.33647  91801103.88247  22418760.966    22418758.492    22418759.725
  22418758.172          46.500          43.000
 17  9  2  0  6  0.0000000  0 11G18G04G10G20G24G32G21G08G13G15G27
 107913801.53848  84088686.28746  20535303.635                    20535302.132
  20535297.775          49.500          41.500
 120028532.58547  93528729.04444  22840666.653                    22840665.617
  22840664.190          43.500          29.000
 112722381.07948  87835634.83547  21450344.772    21450342.302    21450344.007
  21450342.164          52.000          47.000
 120159839.49147  93631051.03744  22865649.292                    22865647.376
  22865644.336          44.500          27.500
 118797667.26147  92569620.61947  22606437.460    22606437.109    22606436.793
  22606437.217          43.250          44.000
 128851094.72946 100403456.31146  24519544.522    24519544.901    24519544.269
  24519543.679          36.750          36.000
 111424154.78348  86824032.77547  21203304.255                    21203302.404
  21203298.718          50.500          42.000
 125858035.66946  98071204.50346  23949984.199    23949984.356    23949984.090
  23949984.127          40.250          39.000
 126334163.18246  98442222.31442  24040583.496                    24040581.733
  24040577.029          40.500          17.000
 113629703.75048  88542638.70147  21623003.956    21622999.223    21623003.197
  21622998.906          50.000          43.000
 117822585.42847  91809810.97447  22420887.228    22420885.122    22420886.625
  22420884.362          45.750          43.000
 17  9  2  0  6 30.0000000  0 11G18G04G10G20G24G32G21G08G13G15G27
 107900777.30348  84078537.53646  20532825.023                    20532823.558
  20532819.478          49.000          41.250
 120076884.54747  93566405.90444  22849868.026                    22849866.790
  22849865.604          44.250          28.500
 112658439.97648  87785810.61747  21438177.221    21438174.192    21438176.702
  21438174.765          51.500          47.000
 120250888.93447  93701998.62544  22882974.838                    22882974.012
  22882970.465          43.750          27.000
 118726746.57147  92514357.79047  22592941.671    22592941.321    22592941.055
  22592940.948          43.250          44.000
 128740823.49346 100317530.81246  24498561.241    24498561.799    24498560.659
  24498561.254          38.500          37.000
 111461195.21148  86852895.44346  21210352.853                    21210351.105
  21210347.220          49.750          41.500
 125806523.87646  98031065.50246  23940182.483    23940182.092    23940181.925
  23940181.753          40.500          39.000
 126438533.95946  98523550.19742  24060444.112                    24060442.910
  24060438.113          40.750          16.500
 113704378.48548  88600826.80047  21637213.913    21637209.556    21637213.516
  21637209.105          50.000          43.000
 117834368.08947  91818992.28347  22423129.246    22423127.203    22423128.080
  22423126.715          45.000          43.000
 17  9  2  0  7  0.0000000  0 11G18G04G10G20G24G32G21G08G13G15G27
 107888039.95148  84068612.33846  20530401.187                    20530399.867
  20530395.621          49.750          41.750
 120125737.39047  93604473.04544  22859164.855                    22859163.865
  22859161.018          44.000          28.750
 112594754.76248  87736185.79248  21426058.448    21426056.059    21426057.879
  21426056.238          51.000          48.000
 120342093.21547  93773066.85544  22900330.749                    22900329.186
  22900326.068          43.000          25.750
 118656258.23847  92459431.86347  22579528.222    22579527.388    22579528.272
  22579527.040          42.750          43.000
 128630669.35546 100231696.55746  24477599.475    24477600.628    24477599.478
  24477599.730          39.250          37.000
 111498668.62648  86882095.49746  21217483.611                    21217482.170
  21217478.056          52.000          41.750
 125755527.46246  97991328.07346  23930479.308    23930477.935    23930478.101
  23930476.128          40.750          39.000
 126543089.90546  98605022.39942  24080340.008                    24080340.050
  24080334.929          39.750          16.500
 113779437.07548  88659314.00947  21651497.003    21651491.977    21651496.216
  21651492.107          49.750          43.000
 117846759.00947  91828647.55147  22425487.308    22425485.184    22425486.522
  22425485.387          46.250          43.000
 17  9  2  0  7 30.0000000  0 11G18G04G10G20G24G32G21G08G13G15G27
 107875589.78448  84058910.92246  20528032.021                    20528030.767
  20528026.245          48.250          41.500
 120175089.07047  93642928.89044  22868556.554                    22868555.116
  22868552.191          44.500          28.500
 112531326.85148  87686761.46247  21413988.472    21413985.950    21413987.828
  21413986.186          50.000          47.000
 120433451.54447  93844255.13544  22917715.311                    22917713.605
  22917711.458          42.500          25.750
 118586206.08547  92404845.79847  22566197.634    22566196.841    22566197.636
  22566196.835          43.250          43.000
 128520634.46146 100145955.21246  24456660.409    24456661.999    24456659.680
  24456660.700          39.250          37.000
 111536575.28348  86911633.14646  21224697.189                    21224695.641
  21224691.388          50.000          41.750
 125705048.21046  97951993.65846  23920872.229    23920871.516    23920871.159
  23920871.690          39.250          39.000
 126647828.94146  98686637.30042  24100271.274                    24100270.720
  24100265.247          40.000          14.750
 113854877.43548  88718098.72147  21665853.005    21665848.578    21665852.489
  21665848.269          50.250          43.000
 117859757.86947  91838776.54247  22427960.633    22427958.525    22427959.467
  22427958.450          45.250          43.000
 17  9  2  0  8  0.0000000  0 11G18G04G10G20G24G32G21G08G13G15G27
 107863427.80148  84049434.05747  20525717.801                    20525716.413
  20525712.008          49.250          42.000
 120224938.21447  93681772.38344  22878042.494                    22878041.044
  22878038.106          44.000          28.250
 112468157.51748  87637538.63547  21401967.650    21401965.074    21401966.782
  21401965.138          51.250          47.000
 120524963.33147  93915562.99844  22935129.510                    22935128.020
  22935124.811          42.250          24.500
 118516592.87447  92350601.76747  22552950.340    22552949.594    22552950.708
  22552948.730          43.000          42.000
 128410721.10146 100060308.56046  24435743.634    24435746.145    24435742.700
  24435745.535          39.250          38.000
 111574915.56948  86941508.68447  21231993.010                    21231991.617
  21231987.571          50.750          42.000
 125655088.47746  97913064.05146  23911364.134    23911364.833    23911364.023
  23911363.844          38.250          39.000
 126752749.18246  98768393.38042  24120237.313                    24120235.625
  24120230.209          40.000          14.750
 113930697.82148  88777179.54047  21680281.094    21680276.698    21680280.557
  21680276.159          50.000          43.000
 117873364.43647  91849379.07847  22430549.939    22430548.413    22430548.705
  22430547.626          45.500          43.000
 17  9  2  0  8 30.0000000  0 11G18G04G10G20G24G32G21G08G13G15G27
 107851554.63248  84040182.24446  20523458.480                    20523457.032
  20523452.421          48.500          41.500
 120275282.99847  93721002.07644  22887622.528                    22887620.816
  22887618.681          43.250          28.500
 112405248.01048  87588518.27047  21389995.857    21389993.302    21389995.298
  21389993.336          51.750          47.000
 120616628.15047  93986990.10343  22952572.511                    22952571.266
  22952568.207          43.250          23.750
 118447422.41047  92296702.73647  22539788.012    22539786.996    22539787.199
  22539786.429          43.250          42.000
 128300931.39646  99974758.26046  24414851.965    24414852.778    24414850.218
  24414852.339          39.750          37.000
 111613689.28048  86971721.95247  21239371.505                    21239370.132
  21239366.114          50.750          42.000
 125605650.32546  97874540.87346  23901956.693    23901957.036    23901955.240
  23901955.987          38.750          40.000
 126857848.37846  98850288.86842  24140237.417                    24140236.702
  24140230.830          40.000          14.750
 114006896.30948  88836554.97447  21694780.861    21694776.764    21694780.429
  21694776.240          49.000          43.000
 117887578.24047  91860454.77947  22433254.448    22433253.039    22433253.320
  22433252.386          46.250          43.000
 17  9  2  0  9  0.0000000  0 11G18G04G10G20G24G32G21G08G13G15G27
 107839969.54948  84031154.90746  20521253.725                    20521252.305
  20521248.094          48.500          41.500
 120326120.16847  93760615.44844  22897296.374                    22897295.248
  22897292.014          43.000          28.250
 112342598.17748  87539700.24347  21378073.966    21378071.270    21378073.112
  21378071.377          49.000          46.000
 120708444.10047  94058534.96244  22970044.650                    22970044.013
  22970040.382          43.250          24.000
 118378696.15347  92243149.83247  22526710.201    22526708.357    22526709.762
  22526708.692          43.500          42.000
 128191266.22146  99889304.98346  24393982.587    24393983.599    24393982.778
  24393982.946          40.000          37.000
 111652895.24648  87002272.05147  21246832.312                    21246830.440
  21246826.641          51.000          42.000
 125556734.38746  97836424.60246  23892648.919    23892647.816    23892647.907
  23892647.290          38.750          40.000
 126963122.99646  98932321.06042  24160270.757                    24160269.592
  24160264.001          41.000          14.250
 114083469.39748  88896222.31547  21709352.486    21709348.335    21709352.024
  21709347.681          49.500          43.000
 117902397.56147  91872002.30947  22436074.229    22436072.340    22436073.567
  22436072.397          45.000          43.000
 17  9  2  0  9 30.0000000  0 11G18G04G10G20G24G32G21G08G13G15G27
 107828671.30348  84022351.08046  20519103.708                    20519102.366
  20519097.951          49.250          41.250
 120377446.33747  93800609.86144  22907063.654                    22907061.719
  22907060.696          44.000          28.250
 112280207.64648  87491084.26547  21366201.627    21366199.188    21366200.937
  21366199.127          50.250          47.000
 120800409.10847  94130195.97944  22987545.352                    22987543.634
  22987539.611          44.500          24.500
 118310415.68547  92189944.29947  22513717.270    22513714.983    22513716.411
  22513714.226          43.000          42.000
 128081726.10046  99803949.14746  24373138.622    24373137.223    24373137.176
  24373138.836          40.250          36.000
 111692532.03148  87033157.85246  21254374.713                    21254373.107
  21254369.465          51.250          41.500
 125508340.76746  97798715.33746  23883439.339    23883439.050    23883439.545
  23883438.901          38.750          40.000
 127068569.56746  99014487.23942  24180336.536                    24180335.333
  24180329.946          40.250          14.250
 114160413.52048  88956178.77247  21723994.507    21723989.666    21723993.827
  21723989.936          49.750          43.000
 117917820.35647  91884020.07247  22439009.156    22439007.579    22439008.280
  22439007.065          46.000          43.000
 17  9  2  0 10  0.0000000  0 11G18G04G10G20G24G32G21G08G13G15G27
 107817661.30748  84013771.86446  20517008.704                    20517007.173
  20517002.942          49.750          41.250
 120429260.42847  93840984.47444  22916923.294                    22916921.223
  22916920.444          43.000          28.500
 112218078.24348  87442671.75847  21354379.162    21354376.739    21354378.596
  21354376.737          51.500          47.000
 120892522.91647  94201972.92644  23005074.346                    23005072.629
  23005068.390          43.750          24.500
 118242584.69047  92137089.00847  22500809.122    22500806.849    22500808.376
  22500806.725          44.250          42.000
 127972313.81346  99718692.93846  24352317.923    24352318.436    24352317.855
  24352318.700          40.750          36.000
 111732600.11748  87064379.72946  21261999.520                    21261997.960
  21261993.695          50.750          41.750
 125460472.35446  97761415.33546  23874330.948    23874329.750    23874329.832
  23874329.978          39.250          41.000
 127174186.63746  99096786.24942  24200434.416                    24200433.528
  24200428.501          38.750          15.000
 114237727.25048  89016423.23247  21738707.019    21738701.841    21738706.471
  21738702.171          48.750          42.000
 117933846.80147  91896508.20847  22442058.894    22442057.491    22442058.555
  22442056.942          45.250          43.000
 17  9  2  0 10 30.0000000  0 11G18G04G10G20G24G32G21G08G13G15G27
 107806940.35148  84005417.87646  20514968.512                    20514966.978
  20514962.536          49.750          41.500
 120481560.50947  93881737.77944  22926875.571                    22926874.106
  22926872.977          42.750          28.500
 112156211.12548  87394463.62847  21342606.120    21342603.493    21342605.449
  21342603.623          52.000          47.000
 120984784.89247  94273865.35444  23022630.970                    23022629.618
  23022625.468          44.250          24.750
 118175205.66047  92084585.89547  22487987.085    22487985.539    22487987.236
  22487985.083          44.000          42.000
 127863031.39447  99633537.92346  24331523.007    24331522.903    24331522.336
  24331522.729          42.000          36.000
 111773099.64648  87095937.79246  21269706.080                    21269704.577
  21269700.538          50.750          41.500
 125413130.76746  97724525.83246  23865321.751    23865321.486    23865320.708
  23865320.198          38.750          41.000
 127279972.41046  99179216.73042  24220564.460                    24220564.278
  24220559.243          38.000          15.000
 114315407.91648  89076953.62447  21753489.080    21753484.601    21753488.408
  21753484.294          50.500          42.000
 117950476.27947  91909466.25047  22445223.796    22445221.776    22445222.800
  22445221.521          45.500          43.000
 17  9  2  0 11  0.0000000  0 11G18G04G10G20G24G32G21G08G13G15G27
 107796508.39448  83997289.08346  20512983.431                    20512981.994
  20512977.626          48.750          41.750
 120534344.11747  93922867.84944  22936920.087                    22936919.489
  22936917.759          42.750          28.250
 112094607.07048  87346460.48847  21330882.881    21330880.133    21330882.166
  21330880.388          51.500          47.000
 121077194.19847  94345872.57844  23040215.672                    23040214.622
  23040211.218          43.250          24.750
 118108281.59947  92032437.29947  22475251.590    22475249.546    22475250.452
  22475249.039          43.000          42.000
 127753880.52647  99548485.42846  24310751.869    24310751.462    24310750.659
  24310750.527          42.000          36.000
 111814030.00648  87127831.56846  21277495.079                    21277493.505
  21277489.454          51.000          41.500
 125366318.18946  97688048.56346  23856413.856    23856413.710    23856412.650
  23856412.526          39.000          41.000
 127385923.75946  99261776.20042  24240726.477                    24240725.334
  24240721.812          37.500          15.500
 114393453.48048  89137768.34347  21768340.695    21768335.708    21768340.150
  21768335.555          49.500          42.000
 117967707.90747  91922893.49747  22448502.944    22448501.112    22448501.980
  22448500.608          44.750          43.000
 17  9  2  0 11 30.0000000  0 11G18G04G10G20G24G32G21G08G13G15G27
 107786365.70648  83989385.69246  20511053.433                    20511051.851
  20511047.543          50.000          41.500
 120587609.05147  93964372.97544  22947056.121                    22947055.203
  22947052.345          43.000          28.000
 112033266.89748  87298662.97047  21319210.220    21319207.067    21319209.354
  21319207.428          50.750          47.000
 121169749.73447  94417993.76344  23057829.008                    23057827.724
  23057824.206          42.500          24.000
 118041815.24347  91980645.34747  22462603.083    22462601.995    22462602.565
  22462601.112          42.750          42.000
 127644862.99646  99463536.83345  24290006.207    24290005.169    24290006.323
  24290004.343          41.750          35.000
 111855391.09548  87160060.97746  21285366.105                    21285364.543
  21285360.383          49.500          41.500
 125320035.67746  97651984.33546  23847605.349    23847605.872    23847604.834
  23847605.778          38.750          41.000
 127492038.41146  99344462.92542  24260919.148                    24260917.967
  24260914.760          37.500          15.500
 114471861.67448  89198865.64547  21783261.269    21783256.679    21783260.914
  21783256.288          48.250          42.000
 117985540.68647  91936789.18147  22451896.443    22451895.175    22451895.837
  22451894.623          45.750          44.000
 17  9  2  0 12  0.0000000  0 11G18G04G10G20G24G32G21G08G13G15G27
 107776512.53748  83981707.90346  20509178.071                    20509176.848
  20509172.594          48.250          41.750
 120641353.46847  94006251.73644  22957283.523                    22957282.588
  22957280.538          43.250          27.500
 111972191.70348  87251071.94047  21307588.201    21307585.666    21307587.334
  21307585.653          51.000          47.000
 121262450.85347  94490228.38443  23075468.996                    23075467.899
  23075464.156          42.000          23.500
 117975809.69047  91929212.45647  22450043.450    22450041.029    22450042.367
  22450040.777          42.750          42.000
 127535980.79047  99378693.65645  24269286.812    24269283.523    24269286.796
  24269284.085          42.000          34.000
 111897182.56248  87192625.74346  21293318.623                    21293317.049
  21293313.201          51.250          41.750
 125274285.18846  97616334.62746  23838899.668    23838900.207    23838899.668
  23838899.273          37.250          41.000
 127598314.46246  99427275.41642  24281143.120                    24281141.750
  24281138.264          37.000          16.250
 114550630.26348  89260243.77247  21798250.550    21798246.056    21798250.363
  21798245.631          49.750          42.000
 118003973.94047  91951152.76147  22455403.471    22455402.896    22455402.907
  22455402.358          44.750          44.000
 17  9  2  0 12 30.0000000  0 11G18G04G10G20G24G32G21G08G13G15G27
 107766949.13348  83974255.90146  20507358.136                    20507356.964
  20507352.752          49.250          41.500
 120695574.68047  94048502.00244  22967601.795                    22967600.139
  22967596.734          42.000          27.000
 111911382.12348  87203687.87947  21296016.907    21296013.882    21296016.326
  21296014.012          50.500          47.000
 121355296.72246  94562575.77443  23093136.656                    23093135.506
  23093133.565          40.750          23.500
 117910267.10247  91878140.32547  22437570.948    22437568.304    22437570.683
  22437568.675          43.250          42.000
 127427235.51046  99293957.19945  24248592.745    24248592.636    24248592.218
  24248590.626          41.750          34.000
 111939403.85848  87225525.43846  21301353.014                    21301351.621
  21301347.670          51.750          41.500
 125229068.12646  97581100.58546  23830296.275    23830295.868    23830294.579
  23830293.802          38.500          41.000
 127704749.14646  99510211.53642  24301396.117                    24301394.825
  24301392.707          36.250          16.250
 114629756.42948  89321900.51547  21813307.670    21813302.793    21813307.354
  21813302.653          49.750          42.000
 118023006.50347  91965983.32347  22459025.918    22459024.741    22459024.859
  22459024.018          43.750          44.000
 17  9  2  0 13  0.0000000  0 11G18G04G10G20G24G32G21G08G13G15G27
 107757675.77148  83967029.91046  20505593.562                    20505592.142
  20505587.855          50.000          41.500
 120750270.50747  94091122.09744  22978009.878                    22978008.510
  22978004.568          42.750          26.500
 111850839.03448  87156511.47048  21284495.478    21284493.186    21284494.887
  21284493.322          52.000          48.000
 121448285.52546  94635034.55743  23110831.932                    23110829.726
  23110828.673          40.500          23.250
 117845190.14547  91827431.02947  22425187.516    22425184.939    22425186.922
  22425184.624          43.750          42.000
 127318628.82946  99209328.70945  24227925.007    24227925.495    24227923.946
  24227924.473          41.500          34.000
 111982054.70448  87258759.85246  21309469.362                    21309467.802
  21309463.947          51.250          41.750
 125184385.63046  97546283.07946  23821792.512    23821791.598    23821792.234
  23821791.876          38.500          40.000
 127811339.88945  99593269.22942  24321679.301                    24321678.494
  24321676.031          35.750          16.000
 114709237.85548  89383834.09447  21828432.471    21828428.106    21828432.046
  21828427.877          50.000          42.000
 118042637.38147  91981280.11647  22462760.746    22462759.365    22462760.336
  22462759.185          44.750          43.000
 17  9  2  0 13 30.0000000  0 11G18G04G10G20G24G32G21G08G13G15G27
 107748692.41548  83960029.89846  20503884.233                    20503882.854
  20503878.522          48.250          41.500
 120805438.37247  94134110.03044  22988508.004                    22988506.228
  22988503.609          43.250          26.500
 111790563.12148  87109543.24048  21273025.148    21273023.396    21273024.526
  21273023.440          51.500          48.000
 121541416.78646  94707604.31843  23128554.318                    23128552.351
  23128551.129          40.000          23.250
 117780581.20947  91777086.44847  22412892.806    22412890.695    22412892.450
  22412890.758          44.500          42.000
 127210162.47046  99124809.58245  24207285.081    24207284.541    24207283.561
  24207284.033          40.500          35.000
 112025134.69348  87292328.66646  21317667.103                    21317665.638
  21317661.814          51.000          41.500
 125140239.25246  97511883.33446  23813391.940    23813391.597    23813391.228
  23813391.002          38.750          41.000
 127918084.27646  99676446.67842  24341992.940                    24341992.007
  24341988.609          36.250          16.000
 114789071.94348  89446042.45747  21843624.417    21843620.265    21843623.760
  21843619.487          48.250          42.000
 118062865.41847  91997042.21947  22466610.464    22466608.477    22466609.667
  22466608.037          45.000          43.000
 17  9  2  0 14  0.0000000  0 11G18G04G10G20G24G32G21G08G13G15G27
 107739999.04048  83953255.84146  20502229.838                    20502228.494
  20502224.339          48.500          41.750
 120861075.55947  94177463.64744  22999095.854                    22999094.323
  22999092.060          44.000          27.000
 111730554.73748  87062783.47348  21261605.954    21261603.990    21261605.339
  21261603.983          51.000          48.000
 121634688.93546  94780283.88443  23146302.709                    23146301.406
  23146299.278          39.500          23.500
 117716442.69647  91727108.42147  22400687.706    22400685.319    22400686.950
  22400685.411          43.000          43.000
 127101837.63846  99040400.73146  24186671.392    24186672.290    24186670.738
  24186671.215          40.500          36.000
 112068642.41048  87326230.77546  21325946.246                    21325944.903
  21325940.836          51.000          41.500
 125096629.72146  97477901.90846  23805091.840    23805092.504    23805091.362
  23805092.904          37.250          41.000
 128024979.56946  99759741.71542  24362334.537                    24362333.742
  24362329.864          36.500          16.000
 114869255.63348  89508523.24546  21858882.599    21858877.552    21858882.413
  21858877.880          48.750          41.000
 118083689.06847  92013268.42647  22470573.003    22470570.175    22470572.446
  22470570.013          44.500          42.000
 17  9  2  0 14 30.0000000  0 11G18G04G10G20G24G32G21G08G13G15G27
 107731596.57248  83946708.46646  20500630.786                    20500629.594
  20500625.482          49.000          41.250
 120917180.29347  94221181.60844  23009772.471                    23009771.000
  23009767.258          45.000          27.750
 111670815.33148  87016233.31248  21250238.232    21250235.736    21250237.510
  21250235.784          50.750          48.000
 121728101.76746  94853073.08843  23164078.325                    23164076.831
  23164075.579          39.250          23.500
 117652777.86747  91677499.49647  22388572.231    22388570.491    22388571.826
  22388570.397          44.500          43.000
 126993656.65746  98956103.96946  24166085.927    24166085.369    24166085.370
  24166084.134          41.000          36.000
 112112578.30148  87360466.52346  21334306.992                    21334305.478
  21334301.668          51.000          41.250
 125053559.41546  97444340.67946  23796895.965    23796897.156    23796894.244
  23796896.793          36.250          41.000
 128132023.77046  99843152.75742  24382704.809                    24382704.593
  24382700.542          36.250          16.000
 114949787.28348  89571275.17146  21874207.199    21874202.777    21874206.838
  21874202.642          48.750          41.000
 118105107.83347  92029958.36347  22474649.034    22474646.251    22474648.277
  22474646.290          44.750          42.000
 17  9  2  0 15  0.0000000  0 11G18G04G10G20G24G32G21G08G13G15G27
 107723484.99948  83940387.76546  20499087.270                    20499085.878
  20499081.592          49.250          41.500
 120973750.18447  94265262.03244  23020537.446                    23020535.740
  23020533.037          44.000          28.250
 111611345.49648  86969893.21048  21238921.185    21238918.984    21238920.774
  21238919.150          51.000          48.000
 121821653.90646  94925970.81943  23181881.367                    23181880.123
  23181878.260          38.750          23.500
 117589589.00747  91628261.46247  22376547.668    22376546.376    22376547.102
  22376546.147          45.000          43.000
 126885621.10547  98871920.54546  24145527.157    24145525.276    24145526.247
  24145525.867          42.000          36.000
 112156941.41848  87395035.16946  21342748.993                    21342747.589
  21342743.767          50.750          41.250
 125011029.51546  97411200.54446  23788802.933    23788803.283    23788801.174
  23788803.059          36.250          41.000
 128239214.56946  99926678.00642  24403102.612                    24403101.527
  24403096.591          37.000          16.000
 115030664.19048  89634296.12546  21889597.545    21889593.524    21889597.044
  21889592.941          49.000          41.000
 118127120.41947  92047111.01547  22478838.069    22478835.451    22478837.183
  22478834.834          44.000          42.000
 17  9  2  0 15 30.0000000  0 11G18G04G10G20G24G32G21G08G13G15G27
 107715663.81848  83934293.34546  20497598.987                    20497597.690
  20497593.363          48.250          41.750
 121030782.20747  94309702.57244  23031389.900                    23031388.281
  23031385.587          44.250          28.250
 111552145.70848  86923763.52548  21227656.006    21227653.732    21227655.353
  21227653.900          51.000          48.000
 121915344.10546  94998976.12943  23199710.287                    23199707.761
  23199706.303          38.750          23.000
 117526878.13047  91579395.88847  22364614.086    22364612.657    22364614.050
  22364612.584          44.250          44.000
 126777732.32046  98787851.48946  24124996.533    24124993.160    24124996.525
  24124993.638          41.750          36.000
 112201731.23348  87429936.31646  21351272.160                    21351270.529
  21351266.809          51.500          41.250
 124969041.00346  97378482.27646  23780812.698    23780814.051    23780811.639
  23780813.640          37.250          41.000
 128346548.83346 100010315.06642  24423527.819                    24423526.237
  24423522.245          37.250          15.500
 115111883.56348  89697583.95046  21905053.100    21905048.820    21905052.470
  21905048.558          48.750          41.000
 118149725.28747  92064725.18947  22483139.642    22483136.718    22483138.568
  22483136.613          45.500          42.000
 17  9  2  0 16  0.0000000  0 11G18G04G10G20G24G32G21G08G13G15G27
 107708133.41848  83928425.50446  20496166.082                    20496164.521
  20496160.303          49.750          41.500
 121088274.24947  94354501.55244  23042329.798                    23042328.898
  23042325.823          44.000          28.000
 111493217.04348  86877845.09448  21216441.978    21216439.863    21216441.331
  21216439.975          51.500          48.000
 122009171.76146  95072088.55343  23217564.850                    23217563.554
  23217561.594          38.250          23.000
 117464647.78547  91530904.74047  22352772.368    22352771.076    22352772.187
  22352770.892          45.000          44.000
 126669992.26546  98703898.31445  24104494.308    24104491.045    24104493.899
  24104490.078          41.500          35.000
 112246947.20848  87465169.53046  21359876.181                    21359874.643
  21359871.071          50.750          40.750
 124927595.36346  97346187.02646  23772926.195    23772927.767    23772925.032
  23772926.499          38.250          41.000
 128454024.59746 100094062.38942  24443980.012                    24443978.646
  24443973.720          37.750          15.500
 115193443.35148  89761137.02146  21920573.744    21920569.384    21920573.191
  21920568.710          49.750          41.000
 118172921.52147  92082800.17147  22487553.638    22487550.477    22487552.985
  22487551.198          45.000          42.000
 17  9  2  0 16 30.0000000  0 11G18G04G10G20G24G32G21G08G13G15G27
 107700894.29048  83922784.63746  20494788.289                    20494786.908
  20494782.846          49.250          41.250
 121146224.13947  94399657.31044  23053357.582                    23053356.676
  23053352.924          44.500          27.750
 111434560.52748  86832138.72548  21205280.094    21205277.736    21205279.236
  21205277.726          51.250          48.000
 122103135.84246  95145307.27943  23235445.815                    23235443.753
  23235442.430          37.750          21.250
 117402901.10347  91482790.46947  22341021.888    22341020.967    22341021.725
  22341020.554          44.500          44.000
 126562402.82746  98620062.49145  24084019.697    24084017.971    24084019.757
  24084017.182          41.000          34.000
 112292588.96648  87500734.52346  21368561.701                    21368559.971
  21368556.337          50.250          40.250
 124886694.26846  97314316.08346  23765144.051    23765143.261    23765142.741
  23765143.258          39.500          41.000
 128561639.51346 100177918.12342  24464458.922                    24464457.615
  24464451.137          38.500          15.750
 115275340.87648  89824953.27246  21936158.345    21936154.136    21936157.841
  21936152.987          49.000          41.000
 118196708.12847  92101335.18747  22492080.041    22492077.501    22492079.268
  22492076.896          46.250          42.000
 17  9  2  0 17  0.0000000  0 11G18G04G10G20G24G32G21G08G13G15G27
 107693947.46048  83917371.52846  20493466.408                    20493465.104
  20493461.122          49.250          41.750
 121204629.70147  94445168.13744  23064472.203                    23064471.242
  23064467.880          44.250          28.000
 111376177.20748  86786645.24748  21194170.147    21194167.738    21194169.587
  21194167.519          52.000          48.000
 122197235.49646  95218631.65743  23253351.916                    23253350.315
  23253349.033          38.000          20.500
 117341640.60447  91435055.03847  22329364.495    22329363.255    22329364.050
  22329363.754          45.000          45.000
 126454965.94846  98536345.55345  24063574.888    24063574.222    24063574.932
  24063572.733          40.250          34.000
 112338656.28248  87536631.12746  21377328.043                    21377326.338
  21377322.498          50.000          40.500
 124846339.02346  97282870.48846  23757465.110    23757464.468    23757463.394
  23757463.040          41.000          41.000
 128669391.52646 100261880.68042  24484963.605                    24484961.860
  24484956.916          39.000          15.750
 115357573.94848  89889030.98747  21951806.598    21951802.007    21951806.159
  21951802.070          48.750          42.000
 118221084.16547  92120329.50247  22496718.367    22496716.524    22496717.113
  22496716.010          44.250          42.000
 17  9  2  0 17 30.0000000  0 11G18G04G10G20G24G32G21G08G13G15G27
 107687292.94448  83912186.19746  20492200.260                    20492198.945
  20492194.697          49.000          41.500
 121263488.60647  94491032.21444  23075672.943                    23075671.629
  23075668.102          44.500          27.500
 111318068.11748  86741365.45848  21183112.466    21183109.903    21183111.877
  21183110.043          51.250          48.000
 122291470.25346  95292061.29443  23271284.167                    23271282.695
  23271279.985          37.500          20.500
 117280869.18647  91387700.70847  22317799.925    22317798.436    22317799.691
  22317798.398          44.750          44.000
 126347683.53746  98452748.98345  24043159.846    24043158.939    24043158.908
  24043158.538          40.000          35.000
 112385148.81548  87572859.06846  21386175.430                    21386173.854
  21386169.778          51.500          40.750
 124806531.51246  97251851.69646  23749889.850    23749888.168    23749889.095
  23749887.811          41.000          41.000
 128777278.67246 100345948.55442  24505494.650                    24505492.592
  24505486.557          39.250          15.250
 115440140.68148  89953368.69647  21967518.250    21967514.764    21967518.279
  21967514.077          48.750          42.000
 118246048.55147  92139782.25747  22501468.928    22501466.421    22501467.990
  22501466.684          44.250          42.000
 17  9  2  0 18  0.0000000  0 11G18G04G10G20G24G32G21G08G13G15G27
 107680930.55748  83907228.50046  20490989.425                    20490988.038
  20490983.860          49.000          41.500
 121322797.99547  94537247.32444  23086959.170                    23086958.154
  23086954.262          44.500          28.000
 111260233.74848  86696299.73548  21172106.934    21172104.173    21172106.293
  21172104.334          51.750          48.000
 122385839.01646  95365595.36543  23289241.965                    23289240.884
  23289238.598          38.750          19.750
 117220588.62447  91340728.85847  22306329.106    22306327.693    22306328.536
  22306327.716          44.750          44.000
 126240556.93146  98369273.81046  24022774.425    24022774.712    24022774.067
  24022773.098          40.250          36.000
 112432065.67248  87609417.65046  21395103.677                    21395102.077
  21395097.799          51.500          40.750
 124767272.33046  97221260.16446  23742419.287    23742417.836    23742417.980
  23742416.930          41.500          40.000
 128885298.30446 100430119.67742  24526049.047                    24526047.963
  24526041.878          38.750          15.250
 115523038.23948  90017964.18046  21983293.255    21983288.904    21983292.529
  21983288.583          48.500          41.000
 118271599.69547  92159692.23947  22506331.432    22506329.255    22506330.495
  22506328.855          45.000          42.000
 17  9  2  0 18 30.0000000  0 11G18G04G10G20G24G32G21G08G13G15G27
 107674860.21648  83902498.36746  20489834.202                    20489832.713
  20489828.497          49.500          41.250
 121382555.20447  94583811.38144  23098330.316                    23098329.642
  23098326.047          43.750          28.250
 111202674.61848  86651448.48048  21161153.604    21161151.135    21161153.215
  21161151.381          51.000          48.000
 122480340.47946  95439232.80943  23307225.542                    23307223.725
  23307222.752          39.250          20.250
 117160801.28647  91294141.35247  22294951.800    22294950.166    22294951.753
  22294950.129          45.500          43.000
 126133587.60546  98285921.18146  24002418.862    24002418.532    24002418.087
  24002417.642          40.500          37.000
 112479406.25048  87646306.39946  21404112.141                    21404110.718
  21404106.407          50.750          40.750
 124728562.61646  97191096.76646  23735052.727    23735051.338    23735051.744
  23735051.526          40.500          40.000
 128993447.47446 100514391.72842  24546629.178                    24546627.051
  24546621.380          38.500          15.500
 115606263.64348  90082815.13246  21999130.485    21999126.718    21999130.197
  21999126.020          48.000          41.000
 118297735.97747  92180058.17947  22511305.249    22511302.491    22511303.864
  22511302.355          45.750          43.000
 17  9  2  0 19  0.0000000  0 11G18G04G10G20G24G32G21G08G13G15G27
 107669082.86548  83897996.54246  20488734.861                    20488733.326
  20488729.283          50.250          41.750
 121442758.42647  94630722.96244  23109786.554                    23109785.571
  23109782.097          43.750          28.500
 111145392.25348  86606812.88748  21150253.402    21150250.937    21150252.604
  21150250.901          52.000          48.000
 122574973.63846  95512972.87343  23325233.603                    23325231.624
  23325230.751          39.250          20.250
 117101510.25047  91247940.58747  22283669.440    22283667.759    22283668.764
  22283667.396          45.250          43.000
 126026777.87546  98202692.92746  23982092.805    23982094.066    23982092.651
  23982094.343          40.750          38.000
 112527170.27548  87683525.11346  21413201.254                    21413199.648
  21413195.441          51.000          40.750
 124690403.99046  97161362.81146  23727791.093    23727790.777    23727790.859
  23727790.373          40.250          40.000
 129101724.64546 100598763.55142  24567232.546                    24567231.297
  24567226.350          38.000          16.000
 115689815.29848  90147920.31646  22015029.749    22015025.385    22015028.909
  22015025.437          48.250          41.000
 118324456.80547  92200879.59747  22516389.783    22516387.498    22516388.539
  22516386.742          45.000          42.000
 17  9  2  0 19 30.0000000  0 11G18G04G10G20G24G32G21G08G13G15G27
 107663599.13648  83893723.51546  20487691.342                    20487690.026
  20487685.980          49.250          41.750
 121503405.26347  94677980.22844  23121327.083                    23121325.354
  23121323.277          44.000          28.750
 111088387.65948  86562393.73748  21139406.068    21139403.412    21139405.404
  21139403.114          52.000          48.000
 122669738.31846  95586815.42743  23343267.079                    23343264.540
  23343263.717          41.000          22.000
 117042717.82647  91202128.35047  22272481.454    22272479.562    22272480.995
  22272478.901          44.250          43.000
 125920129.63546  98119590.51246  23961798.175    23961800.242    23961797.177
  23961799.517          40.750          39.000
 112575357.65148  87721073.70446  21422371.032                    21422369.482
  21422365.413          51.000          40.750
 124652798.31146  97132059.72546  23720635.261    23720634.116    23720634.073
  23720633.932          40.500          40.000
 129210127.47846 100683233.27842  24587860.958                    24587858.929
  24587855.346          37.750          16.000
 115773691.08848  90213278.08446  22030991.372    22030987.033    22030990.844
  22030986.630          49.250          41.000
 118351761.01247  92222155.59447  22521585.641    22521583.412    22521584.665
