     2.11           OBSERVATION DATA    G (GPS)             RINEX VERSION / TYPE
teqc  2013Mar15                         20190126 21:56:15UTCPGM / RUN BY / DATE
Linux 2.4.21-27.ELsmp|Opteron|gcc -static|Linux x86_64|=+   COMMENT
     2.11           OBSERVATION DATA    M (MIXED)           COMMENT
RTCM2RINEX 1.1.15   NRCan               20190125 00:16:06UTCCOMMENT
gfzrnx-1.11-7352    FILE MERGE          20190126 001145 UTC COMMENT
   918130.0800 -4346072.6500  4561977.9000                  APPROX POSITION XYZ
GPS -    L1 Phase aligned to CA and L2 aligned to P2        COMMENT
GLONASS- L1 Phase aligned to C1 and L2 aligned to P2        COMMENT
    18                                                      LEAP SECONDS
     1     1                                                WAVELENGTH FACT L1/2
01882               JAVAD TRE_G3TH DELTA3.6.3 Jul,01,2015   REC # / TYPE / VERS
ALGO CACS-GSD 883160 Algonquin Park ON Canada               MARKER NAME
        0.1000        0.0000        0.0000                  ANTENNA: DELTA H/E/N
40104M002                                                   MARKER NUMBER
ACSOPS              NRCan                                   OBSERVER / AGENCY
303                 AOAD/M_T        NONE                    ANT # / TYPE
     8    C1    C2    L1    L2    P1    P2    S1    S2      # / TYPES OF OBSERV
    30.0000                                                 INTERVAL
teqc edited: all GLONASS satellites excluded                COMMENT
teqc edited: all Galileo satellites excluded                COMMENT
  2019     1    25     0     0    0.0000000     GPS         TIME OF FIRST OBS
                                                            END OF HEADER
 19  1 25  0  0  0.0000000  0 11G01G04G07G08G09G11G16G18G27G28G30
  24797528.782    24797531.732   130312037.0044  101541745.5304   24797530.243
  24797532.509          37.000          20.250
  22456134.933                   118007812.9234   91954144.5004   22456134.589
  22456134.891          47.000          35.750
  20377552.828    20377551.232   107084963.9364   83442708.0994   20377552.544
  20377551.374          53.750          45.750
  20373174.174    20373175.233   107061798.3324   83424787.1774   20373173.343
  20373174.796          53.250          48.000
  23187049.033    23187049.303   121848806.2054   94947112.7234   23187048.867
  23187049.703          43.000          32.750
  22762650.920                   119618675.1024   93209282.6894   22762650.134
  22762649.203          45.000          35.250
  24113684.148                   126718305.5294   98741549.9854   24113682.791
  24113680.574          41.750          26.750
  23009059.798                   120913455.6544   94218272.2404   23009059.477
  23009059.216          43.250          32.000
  21654953.621    21654953.645   113797602.7984   88673470.7354   21654953.275
  21654953.872          48.250          43.500
  23791231.629                   125023790.7534   97421140.4064   23791230.462
  23791228.937          39.000          24.000
  21900216.633    21900217.289   115086451.9214   89677755.5874   21900216.358
  21900217.088          49.250          40.250
 19  1 25  0  0 30.0000000  0 11G01G04G07G08G09G11G16G18G27G28G30
  24775818.945    24775822.119   130197952.4644  101452848.6314   24775819.004
  24775821.400          36.500          21.250
  22469780.379                   118079519.8124   92010020.0044   22469780.005
  22469780.191          46.500          35.500
  20373069.425    20373067.962   107061403.9414   83424349.6594   20373069.366
  20373068.059          54.000          46.000
  20376772.514    20376773.921   107080708.6994   83439522.5324   20376771.940
  20376773.238          53.500          48.000
  23205251.859    23205253.202   121944467.7434   95021654.1454   23205251.571
  23205254.036          42.500          32.750
  22743297.834                   119516975.2154   93130036.0494   22743297.597
  22743296.296          45.000          35.500
  24131482.864                   126811849.3944   98814441.2924   24131482.626
  24131480.979          40.250          24.500
  22989994.731                   120813266.6954   94140202.9444   22989993.752
  22989993.520          43.500          32.250
  21669767.999    21669768.210   113875451.6474   88734132.1794   21669767.241
  21669767.854          49.750          43.250
  23777044.156                   124949239.4424   97363048.5314   23777042.922
  23777042.239          39.250          22.750
  21885422.865    21885424.123   115008710.2044   89617177.6214   21885422.745
  21885424.005          50.000          40.250
 19  1 25  0  1  0.0000000  0 11G01G04G07G08G09G11G16G18G27G28G30
  24754105.105    24754106.730   130083838.4244  101363928.7554   24754104.973
  24754107.301          38.000          21.500
  22483502.303                   118151630.3384   92066209.9974   22483502.171
  22483502.394          46.250          35.250
  20368680.719    20368678.821   107038339.5794   83406377.4314   20368680.525
  20368679.045          54.250          46.000
  20380470.782    20380472.358   107100143.8484   83454666.8124   20380470.317
  20380471.716          53.500          48.250
  23223495.390    23223495.625   122040335.3474   95096356.1554   23223494.953
  23223496.164          42.750          32.750
  22723992.837                   119415526.4054   93050985.0434   22723992.018
  22723991.126          44.750          35.750
  24149291.331                   126905430.5554   98887361.6304   24149291.106
  24149289.950          40.750          25.500
  22970978.034                   120713336.3214   94062335.1744   22970977.233
  22970977.938          42.500          32.250
  21684650.210    21684650.413   113953658.5634   88795072.6364   21684649.520
  21684650.284          49.250          43.250
  23762877.316                   124874788.1934   97305034.5534   23762877.362
  23762875.065          41.000          24.750
  21870687.621    21870688.510   114931276.3094   89556839.5354   21870687.061
  21870688.775          49.250          40.000
 19  1 25  0  1 30.0000000  0 11G01G04G07G08G09G11G16G18G27G28G30
  24732383.153    24732387.183   129969697.7594  101274988.1124   24732383.576
  24732387.960          37.500          21.500
  22497300.751                   118224141.7564   92122712.4054   22497300.856
  22497300.586          45.750          35.500
  20364386.268    20364384.759   107015772.4744   83388792.6794   20364385.942
  20364384.768          54.250          46.000
  20384268.776    20384270.192   107120102.0364   83470218.6504   20384268.188
  20384269.724          53.500          47.750
  23241776.498    23241777.253   122136405.9194   95171216.3404   23241776.000
  23241777.477          42.750          31.500
  22704736.066                   119314331.6704   92972132.0424   22704735.198
  22704733.907          45.500          35.750
  24167105.959                   126999048.3784   98960310.5594   24167106.326
  24167104.085          40.750          24.000
  22952011.959                   120613668.1124   93984671.6774   22952012.056
  22952010.926          42.250          32.000
  21699600.048    21699600.455   114032220.9534   88856290.0914   21699599.450
  21699600.401          49.000          43.250
  23748727.553                   124800436.9334   97247098.5234   23748727.286
  23748727.037          40.000          25.000
  21856012.019    21856012.945   114854152.5534   89496743.1084   21856011.232
  21856012.631          49.750          40.250
 19  1 25  0  2  0.0000000  0 11G01G04G07G08G09G11G16G18G27G28G30
  24710658.729    24710661.949   129855533.5254  101186029.0854   24710659.438
  24710662.203          36.250          18.500
  22511175.150                   118297051.2784   92179525.0064   22511174.891
  22511174.278          46.250          35.000
  20360187.019    20360185.243   106993704.2804   83371596.6874   20360186.722
  20360185.138          54.500          46.250
  20388165.914    20388167.335   107140582.2464   83486177.2594   20388165.353
  20388166.939          53.750          48.000
  23260095.484    23260096.819   122232676.4014   95246232.2854   23260094.600
  23260097.270          40.750          31.250
  22685528.447                   119213393.8204   92893479.1894   22685527.356
  22685525.729          46.500          35.500
  24184928.579                   127092702.3384   99033287.6614   24184928.457
  24184927.044          41.750          25.750
  22933096.160                   120514265.3324   93907215.0074   22933095.443
  22933095.737          44.000          32.000
  21714617.038    21714617.737   114111136.2464   88917782.5314   21714616.429
  21714617.403          49.000          43.500
  23734600.053                   124726185.9264   97189240.6224   23734599.077
  23734595.903          42.750          26.250
  21841394.969    21841396.581   114777341.2014   89436890.1084   21841394.262
  21841395.935          49.500          40.750
 19  1 25  0  2 30.0000000  0 11G01G04G07G08G09G11G16G18G27G28G30
  24688930.654    24688932.887   129741348.5624  101097053.9504   24688931.789
  24688932.447          37.250          18.000
  22525124.545                   118370356.1544   92236645.6754   22525124.332
  22525124.615          45.750          34.750
  20356082.665    20356081.284   106972136.7194   83354790.7944   20356082.511
  20356081.056          54.500          46.000
  20392161.993    20392163.633   107161582.8084   83502541.3354   20392161.525
  20392163.235          53.750          48.000
  23278453.410    23278454.342   122329143.7234   95321401.6084   23278453.128
  23278453.480          42.000          31.750
  22666369.360                   119112715.3694   92815028.4784   22666369.183
  22666367.853          45.750          35.750
  24202756.516                   127186391.5094   99106292.2064   24202756.442
  24202755.360          41.500          25.250
  22914231.188                   120415131.2174   93829967.6844   22914231.071
  22914231.095          44.000          32.250
  21729700.896    21729701.333   114190401.8564   88979547.9374   21729700.242
  21729701.181          49.500          43.250
  23720489.177                   124652035.2924   97131460.9124   23720488.578
  23720487.079          43.500          27.250
  21826838.350    21826839.724   114700844.5554   89377282.3424   21826837.657
  21826838.775          49.750          40.750
 19  1 25  0  3  0.0000000  0 11G01G04G07G08G09G11G16G18G27G28G30
  24667197.143    24667198.826   129627145.8964  101008065.0154   24667197.570
  24667200.615          36.000          18.500
  22539149.110                   118444053.5584   92294072.2274   22539148.489
  22539148.566          46.250          34.500
  20352073.835    20352072.196   106951070.5134   83338375.5754   20352073.693
  20352072.289          54.500          46.250
  20396257.089    20396258.712   107183102.4844   83519309.9174   20396256.565
  20396258.305          53.500          48.000
  23296846.524    23296848.453   122425804.8124   95396721.8794   23296846.733
  23296847.928          41.250          31.500
  22647261.680                   119012299.8614   92736782.6524   22647260.917
  22647259.272          46.500          35.750
  24220591.994                   127280115.3884   99179323.7564   24220591.922
  24220590.725          41.500          24.750
  22895417.830                   120316269.3344   93752932.4784   22895417.528
  22895417.863          43.250          31.500
  21744850.470    21744850.999   114270015.1904   89041584.3094   21744850.228
  21744850.967          49.000          43.250
  23706397.226                   124577985.1874   97073759.5494   23706396.380
  23706395.634          39.250          25.750
  21812341.569    21812342.647   114624664.8674   89317921.5474   21812340.961
  21812342.532          49.000          40.500
 19  1 25  0  3 30.0000000  0 11G01G04G07G08G09G11G16G18G27G28G30
  24645462.681    24645466.596   129512928.5044  100919064.5854   24645462.650
  24645465.474          36.750          18.250
  22553246.852                   118518140.6984   92351802.4484   22553246.245
  22553247.157          45.750          35.000
  20348160.781    20348159.272   106930507.4324   83322352.4014   20348160.552
  20348159.263          54.250          46.000
  20400450.913    20400452.422   107205140.1514   83536482.1304   20400450.325
  20400451.989          54.000          48.000
  23315277.050    23315278.444   122522656.4794   95472190.6824   23315276.829
  23315278.399          42.250          31.000
  22628202.700                   118912149.1594   92658743.1684   22628202.936
  22628201.650          45.750          35.750
  24238434.154                   127373873.5104   99252381.9954   24238433.774
  24238430.969          42.500          24.750
  22876658.009                   120217683.0984   93676112.0364   22876657.435
  22876657.213          43.500          31.750
  21760066.519    21760066.832   114349973.7124   89103889.6484   21760065.910
  21760066.559          49.250          43.250
  23692325.078                   124504035.9564   97016136.7964   23692324.590
  23692323.095          42.000          26.500
  21797905.911    21797907.373   114548804.4574   89258809.5454   21797905.283
  21797906.973          49.500          40.750
 19  1 25  0  4  0.0000000  0 11G01G04G07G08G09G11G16G18G27G28G30
  24623724.559    24623728.487   129398699.2814  100830054.9624   24623725.438
  24623729.856          36.750          21.250
  22567418.626                   118592614.7674   92409834.1904   22567418.569
  22567419.041          45.500          34.500
  20344343.853    20344342.191   106910449.1534   83306722.5884   20344343.826
  20344342.219          54.500          46.000
  20404742.681    20404744.495   107227693.8614   83554056.4524   20404742.132
  20404743.819          54.000          48.250
  23333742.691    23333745.521   122619695.6844   95547805.6434   23333742.498
  23333745.805          41.750          31.750
  22609196.051                   118812266.4404   92580912.4824   22609195.458
  22609194.218          45.500          35.500
  24256282.212                   127467665.2184   99325466.4044   24256281.370
  24256280.495          43.000          25.750
  22857951.004                   120119375.8354   93599508.9784   22857950.463
  22857950.038          43.250          32.000
  21775346.994    21775347.790   114430274.8084   89166461.9394   21775346.387
  21775347.238          49.000          43.000
  23678271.816                   124430187.2824   96958592.3954   23678271.012
  23678270.083          39.750          25.500
  21783531.521    21783532.638   114473265.6244   89199948.1254   21783530.812
  21783532.209          49.500          41.000
 19  1 25  0  4 30.0000000  0 11G01G04G07G08G09G11G16G18G27G28G30
  24601986.078    24601989.225   129284461.3394  100741038.5244   24601986.298
  24601990.338          39.250          24.250
  22581664.284                   118667472.9544   92468165.2414   22581663.965
  22581663.471          45.750          34.750
  20340623.353    20340621.664   106890896.9464   83291487.1104   20340623.186
  20340621.489          54.750          46.250
  20409132.400    20409133.963   107250762.3304   83572031.8864   20409131.985
  20409133.423          53.750          48.250
  23352245.105    23352245.835   122716919.3594   95623564.3404   23352245.172
  23352245.682          43.500          32.000
  22590239.876                   118712654.3154   92503292.6884   22590239.605
  22590238.766          45.500          36.000
  24274136.057                   127561489.5954   99398576.2834   24274135.264
  24274133.953          42.250          25.000
  22839296.884                   120021350.9504   93523126.0034   22839296.551
  22839296.743          42.000          31.750
  21790692.194    21790692.871   114510915.8974   89229299.1524   21790691.896
  21790692.750          48.750          42.750
  23664238.680                   124356439.7334   96901126.7944   23664238.097
  23664237.575          41.750          26.750
  21769218.696    21769219.670   114398050.6314   89141339.0424   21769217.621
  21769219.302          49.500          41.000
 19  1 25  0  5  0.0000000  0 11G01G04G07G08G09G11G16G18G27G28G30
  24580246.737    24580249.512   129170217.6034  100652017.5624   24580246.527
  24580249.982          40.250          24.500
  22595981.349                   118742712.4364   92526793.3984   22595981.186
  22595981.466          45.500          34.750
  20336999.230    20336997.307   106871852.0044   83276646.8964   20336998.999
  20336997.432          54.750          46.250
  20413619.896    20413621.533   107274344.5164   83590407.6164   20413619.605
  20413621.101          54.250          48.000
  23370779.824    23370781.522   122814324.4174   95699464.3524   23370779.651
  23370781.999          43.000          31.000
  22571337.094                   118613315.9884   92425886.2204   22571336.069
  22571335.357          46.250          36.250
  24291995.227                   127655345.9794   99471711.1114   24291994.748
  24291994.851          40.750          24.250
  22820698.052                   119923611.6664   93446965.5184   22820697.832
  22820698.539          43.750          32.000
  21806101.931    21806102.416   114591894.4324   89292399.3144   21806101.582
  21806102.645          48.750          42.750
  23650223.878                   124282793.5434   96843740.1884   23650224.274
  23650221.541          40.250          28.000
  21754967.125    21754968.911   114323161.7974   89082984.1224   21754966.806
  21754968.573          48.250          41.250
 19  1 25  0  5 30.0000000  0 11G01G04G07G08G09G11G16G18G27G28G30
  24558505.646    24558509.644   129055971.0204  100562994.3884   24558506.285
  24558509.801          39.500          24.000
  22610371.160                   118818330.3324   92585716.4244   22610370.862
  22610371.271          45.250          34.750
  20333472.048    20333470.274   106853315.8854   83262203.1724   20333471.714
  20333470.119          54.500          46.250
  20418205.000    20418206.762   107298438.6384   83609182.2634   20418204.360
  20418205.981          54.500          47.750
  23389349.027    23389351.254   122911907.7024   95775503.3004   23389349.328
  23389350.836          43.000          31.500
  22552486.470                   118514254.1984   92348695.2204   22552485.299
  22552484.264          47.500          36.500
  24309861.995                   127749233.9074   99544870.4994   24309861.475
  24309860.482          41.000          23.750
  22802154.818                   119826161.3904   93371030.2294   22802154.088
  22802153.546          44.500          33.000
  21821575.773    21821576.450   114673207.8174   89355760.3994   21821575.376
  21821576.153          49.750          43.000
  23636228.647                   124209248.6034   96786432.4564   23636227.221
  23636227.094          39.000          27.500
  21740778.833    21740780.081   114248601.3804   89024885.1084   21740778.410
  21740780.142          47.750          41.000
 19  1 25  0  6  0.0000000  0 11G01G04G07G08G09G11G16G18G27G28G30
  24536765.275    24536768.506   128941724.7014  100473971.3984   24536765.435
  24536769.119          40.250          25.000
  22624831.859                   118894323.8214   92644932.0984   22624832.256
  22624831.965          44.750          34.750
  20330041.719    20330039.768   106835290.2744   83248157.2414   20330041.483
  20330040.045          54.750          46.250
  20422887.127    20422888.510   107323043.3994   83628354.8024   20422886.436
  20422888.131          54.250          47.750
  23407952.571    23407953.889   123009666.2214   95851678.7654   23407952.203
  23407954.193          43.500          31.000
  22533688.844                   118415471.7254   92271721.8794   22533688.307
  22533686.431          47.500          36.750
  24327735.170                   127843152.9494   99618054.1104   24327734.017
  24327732.827          40.750          23.750
  22783665.968                   119729003.7944   93295323.0474   22783665.323
  22783664.420          44.250          32.000
  21837112.343    21837112.990   114754853.4974   89419380.4064   21837111.902
  21837112.778          49.250          42.500
  23622252.880                   124135805.1894   96729203.8464   23622252.312
  23622251.207          40.500          27.250
  21726653.316    21726654.793   114174371.7074   88967043.8124   21726652.969
  21726654.400          48.250          41.000
 19  1 25  0  6 30.0000000  0 11G01G04G07G08G09G11G16G18G27G28G30
  24515026.351    24515029.809   128827481.5724  100384950.9204   24515024.817
  24515030.179          39.500          23.500
  22639364.640                   118970690.0454   92704438.2374   22639364.272
  22639364.003          45.000          34.250
  20326709.020    20326707.163   106817776.3034   83234509.9934   20326708.582
  20326707.237          54.500          46.250
  20427665.909    20427667.530   107348157.0574   83647923.8874   20427665.345
  20427667.071          54.250          48.250
  23426588.834    23426589.859   123107596.8804   95927988.3254   23426588.511
  23426589.440          44.750          31.750
  22514944.722                   118316970.8144   92194967.9514   22514943.555
  22514942.431          47.750          36.000
  24345612.163                   127937101.8904   99691261.0344   24345612.172
  24345610.661          41.250          23.500
  22765232.804                   119632142.1524   93219846.4254   22765232.892
  22765233.834          44.250          33.000
  21852711.582    21852712.449   114836828.8764   89483257.3304   21852711.336
  21852712.082          49.000          42.500
  23608295.926                   124062463.4954   96672054.5004   23608295.558
  23608294.574          40.500          26.000
  21712591.781    21712592.521   114100475.0474   88909462.0024   21712590.881
  21712592.126          49.500          41.250
 19  1 25  0  7  0.0000000  0 11G01G04G07G08G09G11G16G18G27G28G30
  24493288.325    24493290.526   128713244.6654  100295935.2544   24493288.048
  24493290.214          41.500          24.750
  22653966.881                   119047426.1354   92764232.6124   22653966.021
  22653966.537          44.250          33.500
  20323473.387    20323471.830   106800775.0254   83221262.2434   20323473.322
  20323471.960          54.000          46.250
  20432542.004    20432543.074   107373778.3144   83667888.5094   20432541.068
  20432542.669          54.750          48.000
  23445256.221    23445257.308   123205696.4984   96004429.5814   23445255.323
  23445257.727          43.750          31.000
  22496254.747                   118218755.0404   92118436.1734   22496254.164
  22496252.464          48.000          36.500
  24363497.161                   128031080.5804   99764491.1694   24363494.654
  24363493.302          41.250          23.000
  22746858.414                   119535579.8544   93144603.1254   22746857.506
  22746858.142          44.250          32.750
  21868373.148    21868374.034   114919131.4044   89547389.1654   21868372.690
  21868373.841          49.000          42.500
  23594359.824                   123989223.6274   96614984.5084   23594358.899
  23594357.874          41.500          25.250
  21698593.607    21698593.834   114026913.7044   88852141.4724   21698592.811
  21698594.127          49.500          41.250
 19  1 25  0  7 30.0000000  0 11G01G04G07G08G09G11G16G18G27G28G30
  24471550.315    24471554.493   128599017.0654  100206926.7914   24471550.678
  24471553.168          41.500          26.250
  22668639.296                   119124529.2364   92824312.9394   22668638.440
  22668638.714          44.750          33.750
  20320336.561    20320334.504   106784288.1394   83208415.3234   20320335.921
  20320334.480          54.250          46.000
  20437513.655    20437514.925   107399905.4824   83688247.3454   20437512.954
  20437514.483          54.750          48.000
  23463955.073    23463955.697   123303962.0984   96081000.1324   23463954.261
  23463956.213          43.250          30.000
  22477619.533                   118120826.6964   92042128.3964   22477619.231
  22477616.943          48.000          36.500
  24381384.888                   128125088.3054   99837743.9034   24381384.557
  24381383.386          40.750          23.750
  22728540.196                   119439320.1174   93069595.5594   22728540.514
  22728540.416          44.500          33.250
  21884096.446    21884097.106   115001758.5054   89611773.9274   21884096.393
  21884097.095          49.000          42.500
  23580441.847                   123916085.6474   96557993.8854   23580441.546
  23580440.522          41.750          28.000
  21684659.209    21684660.203   113953689.9424   88795084.0054   21684658.779
  21684659.961          48.750          41.250
 19  1 25  0  8  0.0000000  0 11G01G04G07G08G09G11G16G18G27G28G30
  24449815.074    24449819.818   128484801.7444  100117927.9214   24449815.839
  24449819.855          40.750          26.500
  22683380.325                   119201996.4164   92884676.9524   22683380.168
  22683380.730          44.500          34.250
  20317297.057    20317295.542   106768316.8814   83195970.1874   20317296.783
  20317295.233          54.250          46.000
  20442581.235    20442582.645   107426537.0904   83708999.2484   20442580.662
  20442582.225          54.750          47.750
  23482685.584    23482687.081   123402390.5154   96157697.5814   23482685.078
  23482686.386          43.750          29.750
  22459038.732                   118023188.5864   91966046.7584   22459038.696
  22459037.472          45.750          36.250
  24399279.545                   128219124.5164   99911018.8434   24399279.283
  24399276.836          40.750          23.500
  22710281.421                   119343366.3614   92994826.4334   22710281.047
  22710280.829          42.750          33.250
  21899881.729    21899881.826   115084707.5884   89676409.5884   21899881.030
  21899881.742          49.500          42.500
  23566543.378                   123843049.8804   96501082.8934   23566543.454
  23566541.180          41.750          26.250
  21670789.529    21670790.846   113880806.0824   88738291.3944   21670789.351
  21670790.660          49.500          41.500
 19  1 25  0  8 30.0000000  0 11G01G04G07G08G09G11G16G18G27G28G30
  24428085.331    24428087.842   128370601.7634  100028941.0304   24428085.110
  24428087.498          41.750          26.250
  22698191.695                   119279824.7964   92945322.4484   22698190.584
  22698191.044          45.750          34.500
  20314356.066    20314354.350   106752862.4564   83183927.7804   20314355.885
  20314354.438          53.500          46.000
  20447744.782    20447746.333   107453671.8754   83730143.2424   20447744.367
  20447745.826          54.750          47.750
  23501446.903    23501448.069   123500978.7074   96234519.5394   23501446.596
  23501447.031          44.500          30.250
  22440514.993                   117925843.5294   91890193.4954   22440514.439
  22440513.270          46.500          36.500
  24417179.649                   128313188.6634   99984315.5304   24417178.628
  24417178.353          40.750          25.250
  22692080.408                   119247721.9724   92920298.3494   22692079.984
  22692080.077          43.000          33.250
  21915726.780    21915727.337   115167976.1104   89741294.1564   21915726.481
  21915727.790          49.500          42.500
  23552663.576                   123770116.3204   96444251.5934   23552664.091
  23552663.473          40.000          26.000
  21656985.787    21656986.830   113808264.3904   88681765.4084   21656985.423
  21656986.557          48.750          41.500
 19  1 25  0  9  0.0000000  0 11G01G04G07G08G09G11G16G18G27G28G30
  24406356.946    24406359.127   128256420.1954   99939968.3974   24406356.706
  24406359.039          40.750          25.500
  22713069.236                   119358011.4874   93006247.1074   22713068.860
  22713069.631          44.500          34.750
  20311513.608    20311512.295   106737926.4054   83172289.2984   20311513.621
  20311512.296          53.500          46.500
  20453003.825    20453005.116   107481308.0494   83751677.9254   20453003.417
  20453004.826          54.500          48.000
  23520236.436    23520237.154   123599723.5884   96311463.5814   23520235.971
  23520237.223          43.500          29.500
  22422047.127                   117828794.5004   91814570.8794   22422046.904
  22422045.261          47.750          36.250
  24435084.565                   128407280.0144  100057633.4684   24435083.965
  24435082.753          41.000          23.250
  22673939.517                   119152390.3554   92846013.9734   22673939.118
  22673939.421          45.250          34.000
  21931632.785    21931633.307   115251561.4894   89806425.6144   21931632.058
  21931633.077          49.500          42.500
  23538804.868                   123697285.1574   96387500.0534   23538804.209
  23538802.645          39.500          27.000
  21643247.084    21643247.583   113736067.1894   88625507.8574   21643246.420
  21643247.670          48.750          41.250
 19  1 25  0  9 30.0000000  0 11G01G04G07G08G09G11G16G18G27G28G30
  24384632.645    24384634.443   128142260.0594   99851012.5394   24384632.218
  24384636.624          39.750          25.500
  22728015.601                   119436553.5834   93067448.7264   22728014.914
  22728015.173          44.250          34.250
  20308770.836    20308768.816   106723509.7714   83161055.5644   20308770.351
  20308768.801          53.500          46.250
  20458357.954    20458359.283   107509443.5484   83773601.6954   20458357.243
  20458358.749          54.750          47.500
  23539057.769    23539057.747   123698622.0734   96388527.3564   23539056.549
  23539057.774          45.000          31.000
  22403636.396                   117732044.2484   91739181.0824   22403636.064
  22403634.139          48.000          36.750
  24452993.987                   128501398.0044  100130972.0924   24452993.757
  24452994.001          40.500          24.000
  22655858.652                   119057374.9274   92771976.0204   22655857.810
  22655859.135          45.250          34.000
  21947598.059    21947599.014   115335461.1854   89871802.0134   21947597.765
  21947599.043          49.250          42.500
  23524965.869                   123624556.8234   96330828.6594   23524965.230
  23524963.801          38.500          28.500
  21629574.467    21629575.444   113664216.7264   88569520.4984   21629573.986
  21629575.332          47.750          42.000
 19  1 25  0 10  0.0000000  0 11G01G04G07G08G09G11G16G18G27G28G30
  24362913.854    24362916.556   128028124.4454   99762075.7804   24362913.317
  24362916.637          40.750          24.000
  22743028.634                   119515448.1354   93128925.0024   22743028.184
  22743028.175          44.500          34.250
  20306126.238    20306124.493   106709613.9224   83150227.6264   20306126.135
  20306124.548          54.000          46.250
  20463806.480    20463808.127   107538077.6094   83795913.9564   20463806.079
  20463807.586          54.500          47.750
  23557905.161    23557905.560   123797671.1184   96465708.4034   23557904.857
  23557906.049          44.250          30.500
  22385283.006                   117635595.2814   91664026.0574   22385282.270
  22385280.702          47.500          36.750
  24470908.142                   128595541.8984  100204330.9364   24470908.661
  24470907.703          39.500          23.000
  22637838.407                   118962678.8684   92698186.8964   22637838.023
  22637838.669          44.750          33.250
  21963623.065    21963623.970   115419672.6084   89937421.2994   21963622.539
  21963623.656          49.000          42.250
  23511144.642                   123551931.1554   96274237.2434   23511144.730
  23511143.380          38.500          27.500
  21615968.414    21615969.234   113592715.3104   88513805.1144   21615967.614
  21615968.874          48.500          41.750
 19  1 25  0 10 30.0000000  0 11G01G04G07G08G09G11G16G18G27G28G30
  24341197.871    24341200.367   127914016.5014   99673160.5024   24341198.942
  24341201.729          39.750          21.000
  22758108.123                   119594692.2554   93190673.6624   22758108.078
  22758106.994          44.000          34.500
  20303581.292    20303579.281   106696240.0024   83139806.3894   20303581.235
  20303579.547          53.750          46.500
  20469349.876    20469351.515   107567208.3214   83818613.2124   20469349.372
  20469351.020          54.750          47.500
  23576781.025    23576782.887   123896867.6314   96543004.3824   23576781.016
  23576782.772          42.500          30.500
  22366987.166                   117539450.3864   91589107.9724   22366986.914
  22366984.962          46.500          37.000
  24488829.732                   128689711.4004  100277709.7234   24488827.847
  24488827.151          40.750          24.000
  22619880.044                   118868305.5424   92624649.2644   22619879.622
  22619879.250          43.000          33.750
  21979707.097    21979707.406   115504193.1944   90003281.5094   21979706.631
  21979707.294          49.750          42.000
  23497344.662                   123479408.3334   96217725.9464   23497343.575
  23497342.751          41.500          28.000
  21602429.096    21602429.858   113521565.2124   88458363.4834   21602428.045
  21602429.609          48.500          42.000
 19  1 25  0 11  0.0000000  0 11G01G04G07G08G09G11G16G18G27G28G30
  24319490.694    24319493.364   127799939.1824   99584269.1394   24319491.106
  24319492.669          40.000          23.250
  22773253.890                   119674283.0014   93252692.3994   22773253.598
  22773253.745          43.750          34.500
  20301135.668    20301134.160   106683389.3254   83129792.8754   20301135.600
  20301134.109          53.250          46.250
  20474987.064    20474988.917   107596833.8424   83841698.0364   20474986.842
  20474988.611          54.250          47.500
  23595686.420    23595687.239   123996208.5654   96620412.8694   23595685.049
  23595687.077          41.750          28.750
  22348749.864                   117443612.3914   91514429.0254   22348748.758
  22348747.554          46.750          37.500
  24506754.877                   128783905.7084  100351107.8374   24506753.463
  24506753.696          41.750          24.750
  22601983.013                   118774258.5074   92551365.8844   22601982.884
  22601982.752          42.500          33.250
  21995849.376    21995849.064   115589020.4254   90069380.6454   21995848.508
  21995849.244          49.500          42.250
  23483563.915                   123406988.7034   96161295.1094   23483562.425
  23483561.817          39.750          28.750
  21588956.771    21588957.435   113450768.7484   88403197.4134   21588956.055
  21588957.196          48.500          42.000
 19  1 25  0 11 30.0000000  0 11G01G04G07G08G09G11G16G18G27G28G30
  24297789.950    24297792.097   127685895.6534   99495404.1344   24297788.462
  24297791.717          41.250          24.250
  22788464.871                   119754217.4384   93314978.9464   22788464.304
  22788464.442          43.250          34.250
  20298790.474    20298788.687   106671063.2204   83120188.1194   20298790.115
  20298788.585          53.750          46.500
  20480718.995    20480720.605   107626952.8004   83865167.3524   20480718.472
  20480720.057          55.000          47.750
  23614616.580    23614616.773   124095690.7904   96697931.4234   23614616.497
  23614616.721          42.250          28.250
  22330571.405                   117348083.9544   91439991.3094   22330570.701
  22330569.084          48.750          37.750
  24524683.475                   128878124.1854  100424524.7984   24524683.254
  24524682.232          41.500          25.750
  22584149.528                   118680540.9644   92478339.2344   22584148.980
  22584148.492          45.750          34.000
  22012048.643    22012049.506   115674151.6724   90135716.6884   22012048.414
  22012049.186          49.500          42.250
  23469802.478                   123334672.2874   96104944.6664   23469801.423
  23469800.326          42.250          28.000
  21575552.040    21575552.892   113380328.1474   88348308.6424   21575551.540
  21575552.930          49.500          41.750
 19  1 25  0 12  0.0000000  0 12G01G04G07G08G09G11G13G16G18G27G28G30
  24276092.366    24276096.054   127571889.0214   99406567.8474   24276093.839
  24276096.769          38.500          22.750
  22803740.914                   119834492.5874   93377531.0014   22803740.703
  22803741.001          44.000          34.500
  20296544.994    20296543.069   106659262.6044   83110992.8314   20296544.644
  20296543.146          53.250          46.500
  20486544.198    20486545.678   107657563.8274   83889020.1004   20486543.537
  20486545.114          54.750          47.750
  23633573.269    23633574.761   124195311.2834   96775557.7374   23633572.080
  23633574.127          41.250          27.250
  22312452.473                   117252868.1504   91365797.1644   22312452.029
  22312450.445          48.750          37.250
  25017582.534                   131468311.0964  102442813.5664   25017581.333
  25017580.086          36.750          16.250
  24542617.195                   128972366.4054  100497960.2484   24542616.091
  24542614.827          40.500          25.250
  22566378.586                   118587156.4364   92405572.1014   22566378.745
  22566378.638          45.500          33.500
  22028306.213    22028306.978   115759584.4844   90202287.7164   22028305.757
  22028306.262          49.250          42.000
  23456061.422                   123262459.4284   96048674.9364   23456060.432
  23456059.267          41.500          29.750
  21562215.977    21562216.830   113310245.7304   88293698.9724   21562215.314
  21562216.566          48.000          41.750
 19  1 25  0 12 30.0000000  0 12G01G04G07G08G09G11G13G16G18G27G28G30
  24254407.491    24254409.278   127457922.2314   99317762.6474   24254407.324
  24254410.011          41.750          24.500
  22819081.464                   119915105.5324   93440346.2854   22819080.975
  22819080.179          43.750          34.250
  20294399.202    20294397.864   106647989.0314   83102208.2374   20294399.199
  20294397.691          52.750          46.500
  20492462.187    20492464.168   107688664.7614   83913254.5974   20492461.741
  20492463.489          54.500          47.500
  23652556.247    23652557.793   124295066.9284   96853289.3914   23652556.428
  23652557.224          43.000          29.250
  22294393.246                   117157967.4654   91291848.5964   22294392.723
  22294391.478          49.000          37.750
  25002170.575                   131387318.4784  102379702.4784   25002169.707
  25002165.483          38.750          17.750
  24560555.958                   129066631.6474  100571413.6324   24560554.285
  24560554.294          40.750          24.250
  22548672.680                   118494107.9974   92333066.8234   22548672.118
  22548672.121          46.500          34.250
  22044620.742    22044621.236   115845316.2384   90269091.6864   22044620.113
  22044621.196          49.250          42.250
  23442339.458                   123190350.2014   95992485.9154   23442338.971
  23442337.525          42.500          28.250
  21548948.248    21548949.423   113240523.7844   88239370.1934   21548947.497
  21548949.100          48.250          42.000
 19  1 25  0 13  0.0000000  0 12G01G04G07G08G09G11G13G16G18G27G28G30
  24232728.726    24232730.942   127343998.5744   99228990.9944   24232728.334
  24232731.085          42.750          27.500
  22834484.884                   119996053.2884   93503422.4454   22834484.752
  22834483.931          44.000          33.750
  20292354.531    20292353.152   106637243.3974   83093835.0144   20292354.222
  20292353.025          53.250          46.500
  20498473.589    20498475.218   107720254.1114   83937869.6844   20498473.059
  20498474.880          54.750          47.750
  23671564.305    23671565.312   124394954.6824   96931123.9984   23671564.244
  23671565.034          43.500          29.500
  22276395.198                   117063384.6284   91218147.7064   22276394.155
  22276392.992          48.250          37.250
  24986828.780                   131306712.8524  102316892.8914   24986829.121
  24986828.586          35.500          15.250
  24578497.809                   129160919.6344  100644884.7674   24578497.457
  24578495.488          40.250          24.750
  22531029.871                   118401398.8724   92260825.9814   22531029.608
  22531030.319          44.500          34.500
  22060990.798    22060991.405   115931344.4124   90336126.6304   22060990.389
  22060991.457          48.750          41.500
  23428636.547                   123118344.6724   95936377.7564   23428635.145
  23428634.868          41.500          27.250
  21535749.777    21535750.975   113171164.5614   88185324.0464   21535748.892
  21535750.415          48.750          41.750
 19  1 25  0 13 30.0000000  0 12G01G04G07G08G09G11G13G16G18G27G28G30
  24211057.239    24211060.439   127230121.0634   99140255.3374   24211058.053
  24211060.023          40.500          26.500
  22849950.492                   120077332.8714   93566757.1624   22849951.171
  22849951.880          42.750          33.250
  20290410.668    20290408.713   106627026.8524   83085874.0744   20290410.129
  20290408.724          53.000          46.500
  20504577.306    20504579.433   107752330.2744   83962864.0974   20504577.002
  20504578.697          55.250          47.750
  23690596.405    23690598.740   124494971.4754   97009059.1444   23690595.629
  23690598.657          43.250          29.750
  22258457.257                   116969122.5984   91144696.7744   22258457.261
  22258455.647          48.750          37.750
  24971564.021                   131226496.1074  102254386.4854   24971564.932
  24971564.258          33.000          11.500
  24596445.245                   129255229.6134  100718373.0524   24596442.937
  24596442.522          40.000          23.750
  22513454.143                   118309032.9114   92188852.5264   22513454.081
  22513453.970          46.500          34.500
  22077417.697    22077418.413   116017666.4654   90403390.5654   22077417.053
  22077418.300          49.000          41.500
  23414954.420                   123046443.0154   95880350.5054   23414953.784
  23414952.879          41.750          27.500
  21522620.337    21522621.598   113102170.3824   88131562.3544   21522620.183
  21522621.285          48.500          42.000
 19  1 25  0 14  0.0000000  0 12G01G04G07G08G09G11G13G16G18G27G28G30
  24189397.436    24189400.049   127116292.8064   99051558.0504   24189397.323
  24189400.354          40.500          26.250
  22865481.861                   120158941.3554   93630348.1764   22865480.902
  22865481.226          43.750          33.000
  20288567.243    20288565.531   106617340.4244   83078326.2024   20288566.991
  20288565.471          53.500          46.250
  20510773.794    20510775.349   107784891.5274   83988236.5094   20510773.230
  20510774.908          55.000          47.750
  23709653.548    23709654.519   124595114.2904   97087092.5154   23709653.358
  23709654.356          43.500          30.000
  22240581.033                   116875183.9844   91071497.8684   22240580.687
  22240579.599          48.750          37.500
  24956374.832                   131146670.7794  102192184.9594   24956376.332
  24956374.500          35.750          13.500
  24614395.719                   129349561.0714  100791878.0544   24614395.332
  24614393.422          40.000          24.000
  22495943.473                   118217013.0854   92117148.7724   22495942.372
  22495943.110          46.500          34.250
  22093899.305    22093900.120   116104279.8614   90470881.5274   22093898.910
  22093900.068          48.750          41.000
  23401291.645                   122974645.6134   95824404.4964   23401290.677
  23401289.375          42.000          27.750
  21509560.687    21509562.084   113033543.4554   88078086.8384   21509560.226
  21509561.992          48.250          42.000
 19  1 25  0 14 30.0000000  0 11G01G04G07G08G09G11G16G18G27G28G30
  24167746.502    24167747.863   127002516.8964   98962901.5994   24167746.223
  24167748.964          38.500          27.000
  22881073.254                   120240875.7294   93694193.1294   22881072.699
  22881071.963          43.250          32.750
  20286824.915    20286823.257   106608185.2514   83071192.3014   20286824.829
  20286823.317          53.500          46.500
  20517061.997    20517063.730   107817936.2574   84013985.6534   20517061.278
  20517063.205          55.000          47.750
  23728733.163    23728735.409   124695380.0374   97165221.6484   23728732.625
  23728735.442          43.250          29.500
  22222767.198                   116781571.5674   90998553.1334   22222766.840
  22222765.344          48.000          37.750
  24632349.638                   129443913.0294  100865399.0444   24632350.089
  24632347.323          39.250          23.500
  22478498.848                   118125342.7564   92045717.3654   22478498.349
  22478498.511          45.750          35.000
  22110436.038    22110437.170   116191182.0574   90538597.5264   22110436.200
  22110436.935          48.500          41.250
  23387648.926                   122902952.3424   95768539.6154   23387648.584
  23387646.368          42.750          28.750
  21496572.164    21496573.066   112965286.0784   88024899.2764   21496571.577
  21496572.957          48.750          42.250
 19  1 25  0 15  0.0000000  0 11G01G04G07G08G09G11G16G18G27G28G30
  24146105.692    24146109.307   126888796.4794   98874288.4054   24146105.154
  24146109.489          39.500          27.500
  22896725.613                   120323132.9974   93758289.6894   22896725.528
  22896725.650          42.500          33.750
  20285184.268    20285182.466   106599562.5804   83064473.3404   20285184.122
  20285182.486          53.750          46.500
  20523441.687    20523443.480   107851462.4624   84040109.9694   20523441.174
  20523442.940          55.000          47.750
  23747835.686    23747837.872   124795765.7064   97243444.2194   23747835.682
  23747837.999          42.500          29.250
  22205015.897                   116688287.9844   90925864.6574   22205015.672
  22205013.993          46.750          38.000
  24650308.969                   129538285.5474  100938936.0284   24650308.078
  24650306.218          39.000          23.500
  22461121.573                   118034025.3584   91974560.9734   22461121.503
  22461121.544          44.000          35.500
  22127027.375    22127028.469   116278370.4994   90606536.5824   22127027.158
  22127028.340          48.250          41.000
  23374025.594                   122831363.8084   95712756.3714   23374024.645
  23374023.579          41.750          28.000
  21483653.762    21483655.076   112897400.5354   87972001.4624   21483653.039
  21483654.769          48.750          42.000
 19  1 25  0 15 30.0000000  0 11G01G04G07G08G09G11G16G18G27G28G30
  24124477.236    24124479.628   126775134.7364   98785720.8474   24124477.156
  24124479.383          41.250          29.000
  22912440.213                   120405710.1504   93822635.5194   22912440.213
  22912439.555          43.750          33.500
  20283644.961    20283643.006   106591473.4824   83058170.1514   20283644.584
  20283643.245          53.500          46.500
  20529912.745    20529914.587   107885468.8864   84066608.4804   20529912.329
  20529914.195          55.000          47.750
  23766960.807    23766962.310   124896268.1884   97321757.8104   23766961.214
  23766962.057          42.000          28.000
  22187327.922                   116595335.9254   90853434.4664   22187327.339
  22187325.930          48.500          38.250
  24668268.063                   129632677.9454  101012488.5134   24668267.164
  24668269.940          35.000          19.250
  22443811.968                   117943064.0974   91903682.0884   22443811.937
  22443812.404          46.250          35.250
  22143673.122    22143673.368   116365842.6644   90674696.7124   22143672.840
  22143673.311          48.250          41.000
  23360423.237                   122759879.7434   95657054.5184   23360422.404
  23360420.621          44.000          29.250
  21470806.764    21470807.938   112829889.0924   87919395.1524   21470806.300
  21470807.818          48.250          42.000
 19  1 25  0 16  0.0000000  0 11G01G04G07G08G09G11G16G18G27G28G30
  24102859.330    24102862.008   126661534.7374   98697201.4244   24102859.353
  24102861.447          40.000          27.250
  22928213.259                   120488604.2454   93887228.3014   22928213.586
  22928214.279          41.750          33.750
  20282207.448    20282205.834   106583919.0864   83052283.6054   20282207.107
  20282205.696          53.000          46.500
  20536475.223    20536476.817   107919953.6454   84093479.7234   20536474.723
  20536476.371          55.250          47.750
  23786107.205    23786108.621   124996884.4064   97400160.0234   23786107.056
  23786107.950          41.750          28.000
  22169703.430                   116502718.2354   90781264.8604   22169702.839
  22169701.700          48.750          38.000
  24686236.327                   129727089.5664  101086055.9554   24686236.141
  24686234.999          38.000          20.500
  22426571.426                   117852462.3164   91833083.3034   22426571.051
  22426571.213          47.000          35.250
  22160371.767    22160372.565   116453596.0324   90743075.9684   22160371.477
  22160372.063          47.750          40.750
  23346839.050                   122688500.4934   95601434.3444   23346838.581
  23346837.903          43.000          28.750
  21458031.340    21458032.178   112762754.0084   87867082.1054   21458030.915
  21458032.189          48.250          42.000
 19  1 25  0 16 30.0000000  0 11G01G04G07G08G09G11G16G18G27G28G30
  24081253.284    24081256.549   126547999.6524   98608732.5484   24081253.395
  24081256.005          38.500          25.750
  22944047.376                   120571812.2024   93952065.6464   22944047.751
  22944048.485          42.250          33.250
  20280871.365    20280869.734   106576900.1934   83046814.3404   20280871.401
  20280869.914          52.500          46.500
  20543128.026    20543129.799   107954914.8604   84120722.2294   20543127.673
  20543129.226          55.000          47.500
  23805274.304    23805278.248   125097611.4434   97478648.5874   23805275.372
  23805277.903          41.750          28.750
  22152142.998                   116410437.4574   90709357.7684   22152142.134
  22152140.907          48.750          38.250
  24704205.691                   129821520.0914  101159638.2184   24704204.453
  24704204.583          36.250          21.500
  22409399.953                   117762223.4534   91762767.3324   22409398.875
  22409399.761          47.250          35.000
  22177124.300    22177124.321   116541628.0754   90811672.3694   22177123.672
  22177124.178          48.500          41.000
  23333276.969                   122617226.1714   95545895.9414   23333275.551
  23333274.597          44.250          29.000
  21445328.290    21445329.328   112695997.5504   87815064.0804   21445327.680
  21445329.193          48.750          42.500
 19  1 25  0 17  0.0000000  0 11G01G04G07G08G09G11G16G18G27G28G30
  24059662.906    24059664.058   126434532.5964   98520316.6844   24059661.376
  24059664.077          39.000          25.000
  22959940.815                   120655331.0494   94017145.2534   22959941.156
  22959941.011          42.250          33.000
  20279638.080    20279636.646   106570417.9824   83041763.2664   20279637.982
  20279636.387          53.250          46.500
  20549871.387    20549872.816   107990350.8284   84148334.6664   20549870.972
  20549872.511          55.250          47.750
  23824464.207    23824464.503   125198446.1564   97557221.0894   23824463.771
  23824464.747          43.500          28.500
  22134646.698                   116318496.6654   90637715.5914   22134646.714
  22134645.360          48.500          38.750
  24722179.684                   129915968.5284  101233234.3054   24722177.855
  24722177.401          37.500          20.250
  22392297.056                   117672350.4654   91692736.4614   22392297.023
  22392296.822          47.000          35.000
  22193928.569    22193929.173   116629936.2994   90880483.9824   22193928.070
  22193928.913          48.000          40.750
  23319732.741                   122546057.1974   95490439.6004   23319732.413
  23319731.765          43.250          28.000
  21432697.206    21432698.586   112629621.9864   87763342.8684   21432696.840
  21432698.438          48.250          42.500
 19  1 25  0 17 30.0000000  0 11G01G04G07G08G09G11G16G18G27G28G30
  24038083.623    24038086.063   126321136.7424   98431956.3074   24038083.316
  24038086.255          40.500          27.500
  22975892.591                   120739157.7924   94082464.7664   22975891.914
  22975892.518          41.750          32.750
  20278507.225    20278505.563   106564473.6504   83037131.3144   20278506.815
  20278505.432          53.000          46.500
  20556704.655    20556706.131   108026259.8234   84176315.6994   20556704.074
  20556705.687          55.250          47.500
  23843671.624    23843673.369   125299385.5254   97635875.1334   23843671.724
  23843673.800          43.000          29.250
  22117216.621                   116226898.0094   90566340.0484   22117216.092
  22117214.405          49.250          38.500
  24740155.564                   130010434.7504  101306844.3404   24740153.928
  24740154.012          38.750          20.500
  22375265.300                   117582846.8734   91622993.4154   22375264.500
  22375265.110          47.000          34.750
  22210785.033    22210785.732   116718518.1394   90949508.7954   22210784.642
  22210785.638          47.500          41.250
  23306210.801                   122474993.2724   95435065.1494   23306210.297
  23306208.893          44.250          28.000
  21420139.467    21420140.566   112563629.5274   87711920.1944   21420138.945
  21420140.250          48.500          42.750
 19  1 25  0 18  0.0000000  0 11G01G04G07G08G09G11G16G18G27G28G30
  24016519.843    24016521.992   126207815.2864   98343653.9604   24016518.472
  24016521.300          40.000          27.750
  22991902.622                   120823289.4004   94148021.8604   22991902.444
  22991902.562          42.250          32.500
  20277478.380    20277476.630   106559067.9554   83032919.0874   20277478.068
  20277476.777          53.500          46.750
  20563627.673    20563629.234   108062640.1484   84204664.0104   20563626.900
  20563628.546          55.250          47.500
  23862898.965    23862901.578   125400426.5004   97714608.3424   23862898.860
  23862900.335          42.750          29.250
  22099851.388                   116135644.3704   90495233.3444   22099850.805
  22099849.160          48.500          38.250
  24758134.871                   130104917.8674  101380467.5284   24758134.277
  24758132.664          37.500          19.750
  22358304.006                   117493715.9904   91553540.8194   22358304.438
  22358304.407          47.250          35.750
  22227692.904    22227693.962   116807371.1214   91018744.8854   22227692.584
  22227694.162          47.500          40.750
  23292706.933                   122404034.9254   95379772.9764   23292705.822
  23292705.915          43.500          27.750
  21407654.719    21407655.808   112498022.4534   87660797.7994   21407654.320
  21407655.609          49.500          42.750
 19  1 25  0 18 30.0000000  0 11G01G04G07G08G09G11G16G18G27G28G30
  23994968.522    23994972.539   126094571.3504   98255411.9344   23994970.096
  23994971.675          37.500          26.000
  23007969.915                   120907722.8114   94213814.1004   23007968.997
  23007969.938          42.250          32.250
  20276552.517    20276550.542   106554201.7804   83029127.2614   20276552.298
  20276550.738          53.250          46.500
  20570639.665    20570641.497   108099489.9364   84233378.1364   20570639.212
  20570640.921          55.000          47.500
  23882146.237    23882146.682   125501566.0834   97793418.4224   23882145.590
  23882147.462          42.500          28.250
  22082553.005                   116044738.7304   90424397.8014   22082552.476
  22082550.632          49.250          39.000
  24776116.539                   130199417.6964  101454103.6724   24776117.132
  24776114.996          37.500          20.250
  22341415.293                   117404960.9354   91484381.0634   22341414.137
  22341414.045          48.000          35.250
  22244652.406    22244652.940   116896492.7444   91088190.3144   22244651.925
  22244652.808          47.500          40.750
  23279224.851                   122333182.1084   95324563.0074   23279223.548
  23279222.317          44.500          28.500
  21395244.031    21395244.950   112432803.0024   87609977.4544   21395243.698
  21395244.731          49.000          42.750
 19  1 25  0 19  0.0000000  0 11G01G04G07G08G09G11G16G18G27G28G30
  23973435.871    23973437.979   125981408.0614   98167232.8714   23973435.179
  23973437.891          38.500          26.750
  23024094.042                   120992455.0164   94279839.1894   23024093.104
  23024093.642          42.000          32.500
  20275729.271    20275727.567   106549876.3694   83025756.8064   20275729.304
  20275727.445          52.500          46.750
  20577740.810    20577742.742   108136807.5974   84262456.8354   20577740.523
  20577742.177          55.000          47.250
  23901411.093    23901412.324   125602801.2344   97872302.9084   23901410.482
  23901412.608          43.000          29.250
  22065320.991                   115954183.9174   90353835.6324   22065319.978
  22065318.854          48.500          38.750
  24794103.553                   130293933.6124  101527752.4264   24794102.908
  24794102.102          38.500          20.500
  22324597.361                   117316584.9394   91415516.6704   22324596.690
  22324596.561          46.500          35.000
  22261662.143    22261662.403   116985880.4674   91157843.0934   22261662.057
  22261662.655          47.000          40.500
  23265761.911                   122262435.4384   95269435.7484   23265760.844
  23265760.454          44.750          28.750
  21382907.511    21382908.160   112367973.4384   87559460.9184   21382906.746
  21382907.731          48.500          42.750
 19  1 25  0 19 30.0000000  0 11G01G04G07G08G09G11G16G18G27G28G30
  23951916.954    23951919.367   125868328.7334   98079119.1444   23951917.577
  23951920.253          39.500          27.000
  23040274.048                   121077482.9754   94346094.7124   23040273.480
  23040273.958          42.000          32.500
  20275009.435    20275007.449   106546092.4204   83022808.2724   20275008.949
  20275007.592          52.250          46.500
  20584930.850    20584932.773   108174591.0824   84291898.5144   20584930.541
  20584932.153          55.000          47.500
  23920693.155    23920693.774   125704128.8954   97951259.4824   23920692.415
  23920693.451          42.000          27.750
  22048156.351                   115863981.9134   90283548.3694   22048155.260
  22048153.712          48.750          38.750
  24812091.981                   130388465.2884  101601413.3944   24812090.691
  24812091.111          37.500          21.500
  22307852.602                   117228591.5524   91346950.3944   22307852.076
