     3.03           OBSERVATION DATA    M (MIXED)           RINEX VERSION / TYPE
RTCM2RINEX 1.1.15   NRCan               20190125 00:16:29UTCPGM / RUN BY / DATE 
gfzrnx-1.11-7352    HEADER EDIT         20190126 215922 UTC COMMENT             
   918130.0800 -4346072.6500  4561977.9000                  APPROX POSITION XYZ 
GPS: All phase obs. aligned to: L1C, L2W and L5I            COMMENT             
     RNX:GRIL Message(Corr.): L1C:PC(0.00), L1W:P1(-0.25),  COMMENT             
     L2W:P2(0.00), L2X:P3(0.25), L5X:P5(0.25)               COMMENT             
GLONASS : All phase obs. aligned to: L1C and L2C            COMMENT             
     RNX:GRIL Message(Corr.): L1C:PC(0.00), L1P:P1(-0.25),  COMMENT             
     L2C:P3(0.00), L2P:P2(-0.25)                            COMMENT             
GALILEO: All phase obs. aligned to: L1B, L5I, L7I and L8I   COMMENT             
         RNX:GRIL Message(Corr.): L1X:PC(0.00),             COMMENT             
         L5X:P5(0.25), L7I:P2(0.25), L8I:P1(0.25)           COMMENT             
DBHZ                                                        SIGNAL STRENGTH UNIT
    18                  GPS                                 LEAP SECONDS        
     1     1                                                WAVELENGTH FACT L1/2
E L1X  0.00000                                              SYS / PHASE SHIFT   
E L5X  0.25000                                              SYS / PHASE SHIFT   
G L1C                                                       SYS / PHASE SHIFT   
G L1W -0.25000                                              SYS / PHASE SHIFT   
G L2W                                                       SYS / PHASE SHIFT   
G L2X  0.25000                                              SYS / PHASE SHIFT   
G L5X  0.25000                                              SYS / PHASE SHIFT   
R L1C                                                       SYS / PHASE SHIFT   
R L1P -0.25000                                              SYS / PHASE SHIFT   
R L2C                                                       SYS / PHASE SHIFT   
R L2P -0.25000                                              SYS / PHASE SHIFT   
01882               JAVAD TRE_G3TH DELTA3.6.3 Jul,01,2015   REC # / TYPE / VERS 
ALGO CACS-GSD 883160 Algonquin Park ON Canada               MARKER NAME         
        0.1000        0.0000        0.0000                  ANTENNA: DELTA H/E/N
40104M002                                                   MARKER NUMBER       
ACSOPS              NRCan                                   OBSERVER / AGENCY   
 24 R01  1 R02 -4 R03  5 R04  6 R05  1 R06 -4 R07  5 R08  6 GLONASS SLOT / FRQ #
    R09 -2 R10 -7 R11  0 R12 -1 R13 -2 R14 -7 R15  0 R16 -1 GLONASS SLOT / FRQ #
    R17  4 R18 -3 R19  3 R20  2 R21  4 R22 -3 R23  3 R24  2 GLONASS SLOT / FRQ #
 C1C    0.000 C1P    0.000 C2C    0.000 C2P    0.000        GLONASS COD/PHS/BIS 
303                 AOAD/M_T        NONE                    ANT # / TYPE        
E    8 C1X C5X D1X D5X L1X L5X S1X S5X                      SYS / # / OBS TYPES 
G   20 C1C C1W C2W C2X C5X D1C D1W D2W D2X D5X L1C L1W L2W  SYS / # / OBS TYPES 
       L2X L5X S1C S1W S2W S2X S5X                          SYS / # / OBS TYPES 
R   16 C1C C1P C2C C2P D1C D1P D2C D2P L1C L1P L2C L2P S1C  SYS / # / OBS TYPES 
       S1P S2C S2P                                          SYS / # / OBS TYPES 
    77                                                      # OF SATELLITES     
   E01  1399  1399  1399  1399  1399  1399  1399  1399      PRN / # OF OBS      
   E02   270   269   270   269   270   269   270   269      PRN / # OF OBS      
   E03   850   850   850   850   850   850   850   850      PRN / # OF OBS      
   E04  1036  1036  1036  1036  1036  1036  1036  1036      PRN / # OF OBS      
   E05   740   740   740   740   740   740   740   740      PRN / # OF OBS      
   E07   831   831   831   831   831   831   831   831      PRN / # OF OBS      
   E08   787   787   787   787   787   787   787   787      PRN / # OF OBS      
   E09   901   901   901   901   901   901   901   901      PRN / # OF OBS      
   E11   649   649   649   649   649   649   649   649      PRN / # OF OBS      
   E12  1066  1066  1066  1066  1066  1066  1066  1066      PRN / # OF OBS      
   E13  1026  1026  1026  1026  1026  1026  1026  1026      PRN / # OF OBS      
   E14   956   956   956   956   956   956   956   956      PRN / # OF OBS      
   E15   829   829   829   829   829   829   829   829      PRN / # OF OBS      
   E18   448   448   448   448   448   448   448   448      PRN / # OF OBS      
   E19  1011  1011  1011  1011  1011  1011  1011  1011      PRN / # OF OBS      
   E20  1078        1078        1078        1078            PRN / # OF OBS      
   E21  1403  1403  1403  1403  1403  1403  1403  1403      PRN / # OF OBS      
   E24   924   923   924   923   924   923   924   923      PRN / # OF OBS      
   E25   373   373   373   373   373   373   373   373      PRN / # OF OBS      
   E26  1240  1240  1240  1240  1240  1240  1240  1240      PRN / # OF OBS      
   E27  1115  1115  1115  1115  1115  1115  1115  1115      PRN / # OF OBS      
   E30   622   622   622   622   622   622   622   622      PRN / # OF OBS      
   G01   986   976   976   985   985   986   976   976   985PRN / # OF OBS      
         985   986   976   976   985   985   986   976   976PRN / # OF OBS      
         985   985                                          PRN / # OF OBS      
   G02   857   854   854               857   854   854      PRN / # OF OBS      
               857   854   854               857   854   854PRN / # OF OBS      
                                                            PRN / # OF OBS      
   G03  1045  1035  1035  1045  1045  1045  1035  1035  1045PRN / # OF OBS      
        1045  1045  1035  1035  1045  1045  1045  1035  1035PRN / # OF OBS      
        1045  1045                                          PRN / # OF OBS      
   G04  1033  1026  1026              1033  1026  1026      PRN / # OF OBS      
              1033  1026  1026              1033  1026  1026PRN / # OF OBS      
                                                            PRN / # OF OBS      
   G05   779   775   775   779         779   775   775   779PRN / # OF OBS      
               779   775   775   779         779   775   775PRN / # OF OBS      
         779                                                PRN / # OF OBS      
   G06   812   812   812   812   812   812   812   812   812PRN / # OF OBS      
         812   812   812   812   812   812   812   812   812PRN / # OF OBS      
         812   812                                          PRN / # OF OBS      
   G07   873   847   847   871         873   847   847   871PRN / # OF OBS      
               873   847   847   871         873   847   847PRN / # OF OBS      
         871                                                PRN / # OF OBS      
   G08   921   902   902   920   920   921   902   902   920PRN / # OF OBS      
         920   921   902   902   920   920   921   902   902PRN / # OF OBS      
         920   920                                          PRN / # OF OBS      
   G09  1035  1020  1020  1035  1034  1035  1020  1020  1035PRN / # OF OBS      
        1034  1035  1020  1020  1035  1034  1035  1020  1020PRN / # OF OBS      
        1035  1034                                          PRN / # OF OBS      
   G10   765   761   761   765   765   765   761   761   765PRN / # OF OBS      
         765   765   761   761   765   765   765   761   761PRN / # OF OBS      
         765   765                                          PRN / # OF OBS      
   G11   894   868   868               894   868   868      PRN / # OF OBS      
               894   868   868               894   868   868PRN / # OF OBS      
                                                            PRN / # OF OBS      
   G12  1032  1019  1019  1032        1032  1019  1019  1032PRN / # OF OBS      
              1032  1019  1019  1032        1032  1019  1019PRN / # OF OBS      
        1032                                                PRN / # OF OBS      
   G13   975   963   963               975   963   963      PRN / # OF OBS      
               975   963   963               975   963   963PRN / # OF OBS      
                                                            PRN / # OF OBS      
   G14   761   738   738               761   738   738      PRN / # OF OBS      
               761   738   738               761   738   738PRN / # OF OBS      
                                                            PRN / # OF OBS      
   G15   739   739   739   739         739   739   739   739PRN / # OF OBS      
               739   739   739   739         739   739   739PRN / # OF OBS      
         739                                                PRN / # OF OBS      
   G16   766   758   758               766   758   758      PRN / # OF OBS      
               766   758   758               766   758   758PRN / # OF OBS      
                                                            PRN / # OF OBS      
   G17   850   849   849   850         850   849   849   850PRN / # OF OBS      
               850   849   849   850         850   849   849PRN / # OF OBS      
         850                                                PRN / # OF OBS      
   G18   995   967   967               995   967   967      PRN / # OF OBS      
               995   967   967               995   967   967PRN / # OF OBS      
                                                            PRN / # OF OBS      
   G19   742   725   725               742   725   725      PRN / # OF OBS      
               742   725   725               742   725   725PRN / # OF OBS      
                                                            PRN / # OF OBS      
   G20   788   786   786               788   786   786      PRN / # OF OBS      
               788   786   786               788   786   786PRN / # OF OBS      
                                                            PRN / # OF OBS      
   G21   943   929   929               943   929   929      PRN / # OF OBS      
               943   929   929               943   929   929PRN / # OF OBS      
                                                            PRN / # OF OBS      
   G22  1044  1035  1034              1044  1035  1034      PRN / # OF OBS      
              1044  1035  1034              1044  1035  1034PRN / # OF OBS      
                                                            PRN / # OF OBS      
   G23   992   975   975               992   975   975      PRN / # OF OBS      
               992   975   975               992   975   975PRN / # OF OBS      
                                                            PRN / # OF OBS      
   G24   984   981   981   984   984   984   981   981   984PRN / # OF OBS      
         984   984   981   981   984   984   984   981   981PRN / # OF OBS      
         984   984                                          PRN / # OF OBS      
   G25  1028  1011  1011  1028  1028  1028  1011  1011  1028PRN / # OF OBS      
        1028  1028  1011  1011  1028  1028  1028  1011  1011PRN / # OF OBS      
        1028  1028                                          PRN / # OF OBS      
   G26   809   767   767   807   806   809   767   767   807PRN / # OF OBS      
         806   809   767   767   807   806   809   767   767PRN / # OF OBS      
         807   806                                          PRN / # OF OBS      
   G27   986   974   974   986   986   986   974   974   986PRN / # OF OBS      
         986   986   974   974   986   986   986   974   974PRN / # OF OBS      
         986   986                                          PRN / # OF OBS      
   G28   817   815   815               817   815   815      PRN / # OF OBS      
               817   815   815               817   815   815PRN / # OF OBS      
                                                            PRN / # OF OBS      
   G29  1004   992   992  1004        1004   992   992  1004PRN / # OF OBS      
              1004   992   992  1004        1004   992   992PRN / # OF OBS      
        1004                                                PRN / # OF OBS      
   G30   965   954   954   965   965   965   954   954   965PRN / # OF OBS      
         965   965   954   954   965   965   965   954   954PRN / # OF OBS      
         965   965                                          PRN / # OF OBS      
   G31   814   812   812   813         814   812   812   813PRN / # OF OBS      
               814   812   812   813         814   812   812PRN / # OF OBS      
         813                                                PRN / # OF OBS      
   G32   834   834   834   834   834   834   834   834   834PRN / # OF OBS      
         834   834   834   834   834   834   834   834   834PRN / # OF OBS      
         834   834                                          PRN / # OF OBS      
   R01  1016  1016  1016  1005  1016  1016  1016  1005  1016PRN / # OF OBS      
        1016  1016  1005  1016  1016  1016  1005            PRN / # OF OBS      
   R02  1063  1062  1062  1059  1063  1062  1062  1059  1063PRN / # OF OBS      
        1062  1062  1059  1063  1062  1062  1059            PRN / # OF OBS      
   R03  1079  1078  1079  1078  1079  1078  1079  1078  1079PRN / # OF OBS      
        1078  1079  1078  1079  1078  1079  1078            PRN / # OF OBS      
   R04   972   972   972   955   972   972   972   955   972PRN / # OF OBS      
         972   972   955   972   972   972   955            PRN / # OF OBS      
   R05   812   809   809   790   812   809   809   790   812PRN / # OF OBS      
         809   809   790   812   809   809   790            PRN / # OF OBS      
   R06   839   836    19         839   836    19         839PRN / # OF OBS      
         836    19         839   836    19                  PRN / # OF OBS      
   R07   952   952   952   944   952   952   952   944   952PRN / # OF OBS      
         952   952   944   952   952   952   944            PRN / # OF OBS      
   R08   993   993   993   991   993   993   993   991   993PRN / # OF OBS      
         993   993   991   993   993   993   991            PRN / # OF OBS      
   R09   876   876   876   872   876   876   876   872   876PRN / # OF OBS      
         876   876   872   876   876   876   872            PRN / # OF OBS      
   R10   866   864   864   847   866   864   864   847   866PRN / # OF OBS      
         864   864   847   866   864   864   847            PRN / # OF OBS      
   R11  1022  1018  1016  1008  1022  1018  1016  1008  1022PRN / # OF OBS      
        1018  1016  1008  1022  1018  1016  1008            PRN / # OF OBS      
   R12   988   987    24         988   987    24         988PRN / # OF OBS      
         987    24         988   987    24                  PRN / # OF OBS      
   R13  1097  1097  1095  1081  1097  1097  1095  1081  1097PRN / # OF OBS      
        1097  1095  1081  1097  1097  1095  1081            PRN / # OF OBS      
   R14   924   924   924   920   924   924   924   920   924PRN / # OF OBS      
         924   924   920   924   924   924   920            PRN / # OF OBS      
   R15   935   934   934   933   935   934   934   933   935PRN / # OF OBS      
         934   934   933   935   934   934   933            PRN / # OF OBS      
   R17   807   805   806   785   807   805   806   785   807PRN / # OF OBS      
         805   806   785   807   805   806   785            PRN / # OF OBS      
   R18   815   814   804   802   815   814   804   802   815PRN / # OF OBS      
         814   804   802   815   814   804   802            PRN / # OF OBS      
   R19   866   866   866   859   866   866   866   859   866PRN / # OF OBS      
         866   866   859   866   866   866   859            PRN / # OF OBS      
   R20   955   954   954   949   955   954   954   949   955PRN / # OF OBS      
         954   954   949   955   954   954   949            PRN / # OF OBS      
   R21  1152  1152  1152  1151  1152  1152  1152  1151  1152PRN / # OF OBS      
        1152  1152  1151  1152  1152  1152  1151            PRN / # OF OBS      
   R22  1158  1157  1157  1156  1158  1157  1157  1156  1158PRN / # OF OBS      
        1157  1157  1156  1158  1157  1157  1156            PRN / # OF OBS      
   R23  1088  1088  1088  1079  1088  1088  1088  1079  1088PRN / # OF OBS      
        1088  1088  1079  1088  1088  1088  1079            PRN / # OF OBS      
   R24   879   877   876   743   879   877   876   743   879PRN / # OF OBS      
         877   876   743   879   877   876   743            PRN / # OF OBS      
    30.000                                                  INTERVAL            
  2019     1    25     0     0    0.0000000     GPS         TIME OF FIRST OBS   
  2019     1    25    23    59   30.0000000     GPS         TIME OF LAST OBS    
                                                            END OF HEADER      
> 2019 01 25 00 00 00.0000000  0 26
E02  26010369.234    26010374.088        2093.952        1563.668   136685457.265   102070323.845          46.500          48.750
E07  27504592.676    27504599.139        2711.875        2025.079   144537635.511   107933954.422          41.750          43.250
E15  26174008.548    26174015.984       -3139.320       -2344.294   137545377.667   102712458.046          45.500          46.250
E20  24983859.471                        1146.277                   131291069.095                          36.000
E27  24888604.060    24888609.707       -1907.277       -1424.273   130790533.291    97668261.359          49.750          51.250
E30  21806370.154    21806375.485         189.529         141.545   114593295.005    85572927.919          53.250          56.000
G01  24797528.782    24797530.243    24797532.509    24797531.732    24797534.793       -3802.298       -3802.298       -2962.850       -2962.819       -2839.401   130312037.004   130311905.003   101541745.530   101541747.539    97310835.809          37.000          20.250          20.250          37.000          42.000
G04  22456134.933    22456134.589    22456134.891                                        2383.531        2383.531        1857.286                                   118007812.923   118007809.940    91954144.500                                          47.000          35.750          35.750
G07  20377552.828    20377552.544    20377551.374    20377551.232                        -793.582        -793.582        -618.349        -618.358                   107084963.936   107084798.946    83442708.099    83442710.105                          53.750          45.750          45.750          52.500
G08  20373174.174    20373173.343    20373174.796    20373175.233    20373176.976         621.565         621.565         484.335         484.332         464.151   107061798.332   107061794.340    83424787.177    83424794.186    79948760.575          53.250          48.000          48.000          53.500          57.750
G09  23187049.033    23187048.867    23187049.703    23187049.303    23187052.717        3185.265        3185.265        2482.020        2481.966        2378.573   121848806.205   121848786.212    94947112.723    94947116.721    90990983.388          43.000          32.750          32.750          45.000          49.000
G11  22762650.920    22762650.134    22762649.203                                       -3394.141       -3394.141       -2644.749                                   119618675.102   119618571.113    93209282.689                                          45.000          35.250          35.250
G16  24113684.148    24113682.791    24113680.574                                        3117.562        3117.562        2429.199                                   126718305.529   126718306.535    98741549.985                                          41.750          26.750          26.750
G18  23009059.798    23009059.477    23009059.216                                       -3343.991       -3343.991       -2605.675                                   120913455.654   120913441.664    94218272.240                                          43.250          32.000          32.000
G23  24778598.807                                                                        3552.685                                                                   130212496.948                                                                          29.250
G27  21654953.621    21654953.275    21654953.872    21654953.645    21654956.665        2588.942        2588.942        2017.366        2017.369        1933.323   113797602.798   113797602.805    88673470.735    88673465.738    84978744.950          48.250          43.500          43.500          50.000          55.000
G28  23791231.629    23791230.462    23791228.937                                       -2486.651       -2486.651       -1937.718                                   125023790.753   125023787.759    97421140.406                                          39.000          24.000          24.000
G30  21900216.633    21900216.358    21900217.088    21900217.289    21900220.718       -2596.556       -2596.556       -2023.228       -2023.236       -1938.947   115086451.921   115086441.930    89677755.587    89677769.590    85941197.494          49.250          40.250          40.250          48.250          54.000
R02  23237661.287    23237661.566    23237667.411    23237667.396        3071.404        3071.404        2388.876        2388.898   124000645.875   124000635.891    96444952.122    96444947.131          43.750          43.000          40.750          40.000
R03  23101449.258    23101449.119    23101453.155    23101453.345         215.860         215.860         167.893         167.838   123663888.026   123663871.030    96183020.477    96183011.469          45.750          45.500          41.500          40.750
R10  23422630.831    23422630.145    23422638.453    23422637.926        3420.585        3420.585        2660.374        2660.406   124855838.523   124855846.534    97110095.659    97110099.664          46.750          45.750          37.750          36.250
R11  19713191.848    19713191.620    19713195.650    19713195.302        1091.118        1091.118         848.682         848.678   105341357.792   105341360.796    81932173.403    81932167.403          55.000          54.250          51.250          50.000
R12  19932929.913    19932929.191                                       -1902.000       -1902.000                                   106478154.896   106478170.896                                          53.000          52.000
R20  23256584.593    23256585.847    23256592.478    23256590.913        4051.908        4051.908        3151.549        3151.545   124363476.410   124363473.413    96727164.413    96727159.409          38.750          38.250          40.750          39.500
R21  19714949.215    19714949.054    19714953.670    19714953.669         731.719         731.719         569.136         569.128   105498720.931   105498710.932    82054562.685    82054563.681          54.750          54.000          51.750          50.250
R22  20817919.698    20817918.931    20817924.013    20817924.046       -3616.367       -3616.367       -2812.731       -2812.718   111127572.514   111127533.517    86432535.268    86432533.269          54.500          53.500          49.250          48.000
> 2019 01 25 00 00 30.0000000  0 26
E02  26022334.661    26022339.400        2097.960        1566.643   136748335.899   102117278.642          47.000          48.750
E07  27520080.995    27520088.431        2714.332        2026.984   144619028.435   107994734.834          41.250          44.250
E15  26156098.874    26156106.081       -3135.418       -2341.372   137451259.559   102642175.114          45.750          47.250
E20  24990437.132                        1158.838                   131325644.318                          35.000
E27  24877725.234    24877730.574       -1904.173       -1421.939   130733361.560    97625568.200          50.250          51.500
E30  21807471.254    21807476.919         196.345         146.640   114599083.003    85577250.127          53.250          56.000
G01  24775818.945    24775819.004    24775821.400    24775822.119    24775824.254       -3803.516       -3803.516       -2963.754       -2963.780       -2840.248   130197952.464   130197820.480   101452848.631   101452850.634    97225642.981          36.500          21.250          21.250          37.750          42.000
G04  22469780.379    22469780.005    22469780.191                                        2397.041        2397.041        1867.882                                   118079519.812   118079516.818    92010020.004                                          46.500          35.500          35.500
G07  20373069.425    20373069.366    20373068.059    20373067.962                        -777.100        -777.100        -605.524        -605.522                   107061403.941   107061238.950    83424349.659    83424351.666                          54.000          46.000          46.000          52.500
G08  20376772.514    20376771.940    20376773.238    20376773.921    20376775.499         639.121         639.121         498.016         498.010         477.261   107080708.699   107080704.706    83439522.532    83439529.538    79962881.959          53.500          48.000          48.000          53.500          57.750
G09  23205251.859    23205251.571    23205254.036    23205253.202    23205256.216        3192.128        3192.128        2487.450        2487.457        2383.823   121944467.743   121944447.750    95021654.145    95021658.154    91062418.927          42.500          32.750          32.750          44.750          49.000
G11  22743297.834    22743297.597    22743296.296                                       -3385.829       -3385.829       -2638.291                                   119516975.215   119516871.230    93130036.049                                          45.000          35.500          35.500
G16  24131482.864    24131482.626    24131480.979                                        3118.836        3118.836        2430.177                                   126811849.394   126811850.401    98814441.292                                          40.250          24.500          24.500
G18  22989994.731    22989993.752    22989993.520                                       -3335.175       -3335.175       -2598.922                                   120813266.695   120813252.698    94140202.944                                          43.500          32.250          32.250
G23  24798884.863                                                                        3552.097                                                                   130319078.754                                                                          34.000
G27  21669767.999    21669767.241    21669767.854    21669768.210    21669770.941        2600.900        2600.900        2026.700        2026.699        1942.264   113875451.647   113875451.656    88734132.179    88734127.186    85036878.837          49.750          43.250          43.250          50.500          55.000
G28  23777044.156    23777042.922    23777042.239                                       -2483.471       -2483.471       -1935.152                                   124949239.442   124949236.445    97363048.531                                          39.250          22.750          22.750
G30  21885422.865    21885422.745    21885424.005    21885424.123    21885427.054       -2586.316       -2586.316       -2015.315       -2015.295       -1931.333   115008710.204   115008700.215    89617177.621    89617191.633    85883143.627          50.000          40.250          40.250          48.500          54.000
R02  23254966.081    23254965.585    23254971.735    23254971.141        3084.270        3084.270        2398.808        2398.834   124092979.811   124092969.801    96516767.385    96516762.381          46.000          45.000          42.250          41.000
R03  23102729.282    23102728.322    23102732.983    23102733.460         241.006         241.006         187.454         187.458   123670740.182   123670723.182    96188349.964    96188340.969          45.750          45.500          41.250          40.000
R10  23441897.941    23441898.473    23441906.689    23441905.797        3426.708        3426.708        2665.230        2665.287   124958549.108   124958557.109    97189981.636    97189985.639          46.500          46.000          36.000          35.000
R11  19719361.234    19719360.950    19719364.904    19719364.716        1106.620        1106.620         860.720         860.718   105374324.208   105374327.214    81957813.946    81957807.948          55.500          54.250          51.500          50.000
R12  19922280.499    19922280.187                                       -1890.286       -1890.286                                   106421270.561   106421286.564                                          52.500          52.000
R20  23279345.680    23279343.626    23279348.902    23279349.521        4061.336        4061.336        3158.840        3158.843   124485174.606   124485171.619    96821818.591    96821813.593          40.000          39.000          40.500          40.000
R21  19719127.071    19719127.032    19719131.056    19719131.461         758.743         758.743         590.139         590.141   105521077.591   105521067.591    82071951.195    82071952.195          54.750          54.250          51.500          50.500
R22  20797642.661    20797642.458    20797648.618    20797647.678       -3599.271       -3599.271       -2799.425       -2799.431   111019337.764   111019298.767    86348352.701    86348350.705          53.750          53.250          48.750          47.750
> 2019 01 25 00 01 00.0000000  0 26
E02  26034323.237    26034328.182        2102.036        1569.733   136811336.049   102164324.176          46.750          48.750
E07  27535584.059    27535590.839        2716.855        2028.881   144700495.614   108055570.676          41.500          43.500
E15  26138211.062    26138218.617       -3131.331       -2338.349   137357260.205   102571980.853          45.250          47.000
E20  24997090.029                        1171.155                   131360595.510                          36.000
E27  24866862.902    24866868.583       -1901.137       -1419.691   130676281.405    97582943.417          50.250          51.500
E30  21808611.696    21808617.334         203.247         151.761   114605076.211    85581725.578          53.250          56.250
G01  24754105.105    24754104.973    24754107.301    24754106.730    24754109.318       -3804.496       -3804.496       -2964.450       -2964.516       -2841.019   130083838.424   130083706.439   101363928.755   101363930.759    97140428.098          38.000          21.500          21.500          38.500          43.250
G04  22483502.303    22483502.171    22483502.394                                        2410.410        2410.410        1878.194                                   118151630.338   118151627.357    92066209.997                                          46.250          35.250          35.250
G07  20368680.719    20368680.525    20368679.045    20368678.821                        -760.541        -760.541        -592.636        -592.652                   107038339.579   107038174.585    83406377.431    83406379.436                          54.250          46.000          46.000          52.750
G08  20380470.782    20380470.317    20380471.716    20380472.358    20380473.785         656.580         656.580         511.641         511.635         490.315   107100143.848   107100139.857    83454666.812    83454673.821    79977395.230          53.500          48.250          48.250          53.500          58.000
G09  23223495.390    23223494.953    23223496.164    23223495.625    23223499.789        3199.077        3199.077        2492.750        2492.774        2388.907   122040335.347   122040315.345    95096356.155    95096360.170    91134008.334          42.750          32.750          32.750          44.500          49.500
G11  22723992.837    22723992.018    22723991.126                                       -3377.470       -3377.470       -2631.759                                   119415526.405   119415422.422    93050985.043                                          44.750          35.750          35.750
G16  24149291.331    24149291.106    24149289.950                                        3119.955        3119.955        2431.174                                   126905430.555   126905431.561    98887361.630                                          40.750          25.500          25.500
G18  22970978.034    22970977.233    22970977.938                                       -3326.712       -3326.712       -2592.251                                   120713336.321   120713322.332    94062335.174                                          42.500          32.250          32.250
G23  24819161.128                                                                        3551.035                                                                   130425628.140                                                                          35.250
G27  21684650.210    21684649.520    21684650.284    21684650.413    21684653.012        2612.876        2612.876        2036.020        2036.002        1951.174   113953658.563   113953658.575    88795072.636    88795067.634    85095280.105          49.250          43.250          43.250          50.250          55.000
G28  23762877.316    23762877.362    23762875.065                                       -2479.976       -2479.976       -1932.485                                   124874788.193   124874785.187    97305034.553                                          41.000          24.750          24.750
G30  21870687.621    21870687.061    21870688.775    21870688.510    21870691.472       -2575.984       -2575.984       -2007.267       -2007.266       -1923.636   114931276.309   114931266.318    89556839.535    89556853.541    85825319.621          49.250          40.000          40.000          48.250          54.000
R02  23272341.376    23272341.634    23272344.043    23272346.405        3097.086        3097.086        2408.894        2408.857   124185700.933   124185690.931    96588883.814    96588878.803          45.000          44.750          40.500          40.000
R03  23104149.417    23104149.119    23104154.867    23104154.699         266.160         266.160         206.962         206.943   123678345.973   123678328.971    96194265.556    96194256.565          44.500          44.250          41.500          39.750
R10  23461201.047    23461199.831    23461208.756    23461206.777        3432.795        3432.795        2669.989        2669.979   125061440.790   125061448.798    97270008.481    97270012.478          46.250          45.250          37.250          35.750
R11  19725616.839    19725616.976    19725620.662    19725620.812        1122.069        1122.069         872.717         872.715   105407754.320   105407757.322    81983815.144    81983809.142          55.250          54.250          51.250          50.000
R12  19911697.320    19911697.250                                       -1878.510       -1878.510                                   106364738.398   106364754.405                                          52.500          51.750
R20  23302155.977    23302155.071    23302162.782    23302162.185        4070.946        4070.946        3166.312        3166.328   124607157.774   124607154.760    96916694.396    96916689.393          41.000          40.250          43.000          41.750
R21  19723456.006    19723456.253    19723460.680    19723460.925         785.661         785.661         611.079         611.081   105544243.520   105544233.520    82089969.139    82089970.140          54.750          54.250          51.750          50.750
R22  20777464.096    20777463.393    20777468.406    20777467.747       -3582.038       -3582.038       -2786.037       -2786.045   110911617.630   110911578.631    86264570.392    86264568.390          54.750          53.750          49.250          47.500
> 2019 01 25 00 01 30.0000000  0 26
E02  26046335.079    26046340.100        2106.109        1572.734   136874457.635   102211460.376          46.750          49.000
E07  27551099.692    27551107.370        2719.116        2030.511   144782034.988   108116460.461          40.750          43.500
E15  26120346.187    26120354.170       -3127.357       -2335.317   137263381.387   102501876.595          45.000          47.250
E20  25003810.399                        1183.696                   131395921.603                          35.000
E27  24856018.745    24856024.350       -1898.037       -1417.365   130619293.455    97540387.490          50.000          51.750
E30  21809791.526    21809796.869         210.019         156.845   114611274.998    85586354.546          53.500          56.000
G01  24732383.153    24732383.576    24732387.960    24732387.183    24732389.352       -3805.180       -3805.180       -2965.142       -2965.185       -2841.627   129969697.759   129969565.755   101274988.112   101274990.115    97055193.350          37.500          21.500          21.500          37.250          44.250
G04  22497300.751    22497300.856    22497300.586                                        2423.646        2423.646        1888.666                                   118224141.756   118224138.776    92122712.405                                          45.750          35.500          35.500
G07  20364386.268    20364385.942    20364384.768    20364384.759                        -743.947        -743.947        -579.697        -579.694                   107015772.474   107015607.486    83388792.679    83388794.685                          54.250          46.000          46.000          52.500
G08  20384268.776    20384268.188    20384269.724    20384270.192    20384271.746         674.009         674.009         525.203         525.207         503.322   107120102.036   107120098.047    83470218.650    83470225.661    79992299.076          53.500          47.750          47.750          53.500          57.750
G09  23241776.498    23241776.000    23241777.477    23241777.253    23241781.824        3205.703        3205.703        2497.975        2497.982        2393.872   122136405.919   122136385.918    95171216.340    95171220.345    91205749.338          42.750          31.500          31.500          44.250          50.000
G11  22704736.066    22704735.198    22704733.907                                       -3368.879       -3368.879       -2625.051                                   119314331.670   119314227.688    92972132.042                                          45.500          35.750          35.750
G16  24167105.959    24167106.326    24167104.085                                        3121.162        3121.162        2432.159                                   126999048.378   126999049.388    98960310.559                                          40.750          24.000          24.000
G18  22952011.959    22952012.056    22952010.926                                       -3317.834       -3317.834       -2585.386                                   120613668.112   120613654.114    93984671.677                                          42.250          32.000          32.000
G23  24839428.096                                                                        3549.840                                                                   130532142.281                                                                          33.750
G27  21699600.048    21699599.450    21699600.401    21699600.455    21699602.871        2624.686        2624.686        2045.185        2045.190        1959.975   114032220.953   114032220.968    88856290.091    88856285.094    85153946.836          49.000          43.250          43.250          50.500          55.000
G28  23748727.553    23748727.286    23748727.037                                       -2476.669       -2476.669       -1929.897                                   124800436.933   124800433.939    97247098.523                                          40.000          25.000          25.000
G30  21856012.019    21856011.232    21856012.631    21856012.945    21856015.614       -2565.604       -2565.604       -1999.154       -1999.163       -1915.859   114854152.553   114854142.557    89496743.108    89496757.112    85767727.210          49.750          40.250          40.250          49.000          54.000
R02  23289789.353    23289789.021    23289791.264    23289793.911        3109.809        3109.809        2418.731        2418.756   124278804.984   124278794.992    96661298.086    96661293.078          46.250          45.500          39.750          39.000
R03  23105711.728    23105711.335    23105715.060    23105715.114         291.175         291.175         226.406         226.422   123686704.671   123686687.670    96200766.788    96200757.793          45.750          45.250          40.250          40.000
R10  23480537.427    23480536.538    23480542.506    23480543.353        3438.810        3438.810        2674.529        2674.634   125164512.855   125164520.865    97350175.600    97350179.601          45.750          44.750          35.000          34.500
R11  19731959.654    19731959.728    19731963.745    19731963.580        1137.548        1137.548         884.765         884.769   105441648.222   105441651.223    82010177.068    82010171.066          55.000          54.250          51.250          50.000
R12  19901180.994    19901180.357                                       -1866.672       -1866.672                                   106308560.638   106308576.640                                          52.500          51.500
R20  23325020.911    23325019.849    23325026.686    23325025.440        4080.010        4080.010        3173.448        3173.432   124729422.523   124729419.531    97011789.220    97011784.206          40.250          39.000          42.750          42.500
R21  19727936.352    19727936.394    19727941.122    19727940.882         812.541         812.541         631.973         631.970   105568216.981   105568206.983    82108615.174    82108616.171          55.000          54.250          51.500          50.500
R22  20757381.346    20757380.874    20757385.559    20757385.428       -3564.737       -3564.737       -2772.562       -2772.558   110804415.652   110804376.649    86181191.093    86181189.094          54.500          53.750          48.750          47.750
> 2019 01 25 00 02 00.0000000  0 26
E02  26058369.786    26058374.952        2110.134        1575.756   136937700.634   102258687.242          46.500          49.000
E07  27566630.159    27566637.398        2721.469        2032.244   144863644.607   108177402.690          42.750          43.500
E15  26102504.493    26102512.969       -3123.237       -2332.313   137169624.843   102431863.656          45.000          47.750
E20  25010606.114                        1196.186                   131431621.203                          35.750
E27  24845191.909    24845197.457       -1894.954       -1415.073   130562398.243    97497900.818          50.000          51.750
E30  21811010.427    21811015.572         216.923         162.000   114617679.791    85591137.349          53.250          56.000
G01  24710658.729    24710659.438    24710662.203    24710661.949    24710664.800       -3805.838       -3805.838       -2965.444       -2965.417       -2841.873   129855533.525   129855401.541   101186029.085   101186031.106    96969941.024          36.250          18.500          18.500          37.000          43.750
G04  22511175.150    22511174.891    22511174.278                                        2436.936        2436.936        1898.877                                   118297051.278   118297048.298    92179525.006                                          46.250          35.000          35.000
G07  20360187.019    20360186.722    20360185.138    20360185.243                        -727.263        -727.263        -566.690        -566.695                   106993704.280   106993539.292    83371596.687    83371598.693                          54.500          46.250          46.250          52.750
G08  20388165.914    20388165.353    20388166.939    20388167.335    20388168.977         691.323         691.323         538.706         538.700         516.256   107140582.246   107140578.255    83486177.259    83486184.269    80007592.744          53.750          48.000          48.000          53.250          57.750
G09  23260095.484    23260094.600    23260097.270    23260096.819    23260100.481        3212.258        3212.258        2503.010        2503.017        2398.738   122232676.401   122232656.414    95246232.285    95246236.295    91277639.611          40.750          31.250          31.250          44.500          49.000
G11  22685528.447    22685527.356    22685525.729                                       -3360.261       -3360.261       -2618.339                                   119213393.820   119213289.823    92893479.189                                          46.500          35.500          35.500
G16  24184928.579    24184928.457    24184927.044                                        3122.364        3122.364        2432.971                                   127092702.338   127092703.344    99033287.661                                          41.750          25.750          25.750
G18  22933096.160    22933095.443    22933095.737                                       -3308.899       -3308.899       -2578.308                                   120514265.332   120514251.351    93907215.007                                          44.000          32.000          32.000
G23  24859692.951                                                                        3548.627                                                                   130638618.645                                                                          36.250
G27  21714617.038    21714616.429    21714617.403    21714617.737    21714620.093        2636.341        2636.341        2054.307        2054.306        1968.698   114111136.246   114111136.256    88917782.531    88917777.538    85212877.087          49.000          43.500          43.500          50.250          54.750
G28  23734600.053    23734599.077    23734595.903                                       -2473.350       -2473.350       -1927.244                                   124726185.926   124726182.931    97189240.622                                          42.750          26.250          26.250
G30  21841394.969    21841394.262    21841395.935    21841396.581    21841398.769       -2555.166       -2555.166       -1991.067       -1991.032       -1908.083   114777341.201   114777331.207    89436890.108    89436904.115    85710368.090          49.500          40.750          40.750          49.250          54.250
R02  23307309.066    23307308.615    23307312.879    23307313.091        3122.313        3122.313        2428.461        2428.468   124372287.462   124372277.468    96734006.671    96734001.667          47.750          46.500          41.250          40.500
R03  23107412.989    23107413.563    23107416.855    23107416.583         316.219         316.219         245.917         245.940   123695815.432   123695798.430    96207852.931    96207843.935          45.750          45.000          40.750          39.750
R10  23499905.346    23499905.777    23499914.480    23499912.256        3444.698        3444.698        2679.218        2679.211   125267763.923   125267771.936    97430481.980    97430485.987          44.750          44.750          34.750          33.500
R11  19738390.029    19738389.482    19738392.952    19738393.244        1153.045        1153.045         896.818         896.803   105476006.516   105476009.519    82036900.187    82036894.185          55.250          54.000          51.250          49.750
R12  19890731.685    19890731.184                                       -1854.702       -1854.702                                   106252740.050   106252756.052                                          53.000          51.750
R20  23347936.888    23347935.493    23347943.300    23347941.719        4089.307        4089.307        3180.611        3180.616   124851964.457   124851961.437    97107099.557    97107094.559          40.000          38.500          42.750          42.250
R21  19732566.959    19732566.910    19732571.281    19732571.452         839.455         839.455         652.902         652.904   105592996.750   105592986.752    82127888.328    82127889.331          55.250          54.250          51.750          50.500
R22  20737396.329    20737395.965    20737400.577    20737400.777       -3547.255       -3547.255       -2758.959       -2758.975   110697735.560   110697696.564    86098217.710    86098215.710          55.000          53.750          49.000          48.000
> 2019 01 25 00 02 30.0000000  0 26
E02  26070427.156    26070432.421        2114.188        1578.744   137001064.957   102306004.716          46.000          48.500
E07  27582172.949    27582179.699        2723.638        2033.895   144945322.390   108238395.795          41.750          43.000
E15  26084687.069    26084695.367       -3118.973       -2329.070   137075992.393   102361943.360          45.500          48.000
E20  25017468.260                        1208.389                   131467693.049                          34.750
E27  24834382.832    24834388.232       -1891.804       -1412.708   130505596.378    97455483.856          50.500          51.500
E30  21812268.096    21812273.671         223.842         167.154   114624290.978    85596074.269          53.250          55.750
G01  24688930.654    24688931.789    24688932.447    24688932.887    24688934.934       -3806.482       -3806.482       -2966.107       -2966.139       -2842.532   129741348.562   129741216.578   101097053.950   101097055.956    96884673.207          37.250          18.000          18.000          36.750          42.250
G04  22525124.545    22525124.332    22525124.615                                        2449.999        2449.999        1909.109                                   118370356.154   118370353.159    92236645.675                                          45.750          34.750          34.750
G07  20356082.665    20356082.511    20356081.056    20356081.284                        -710.569        -710.569        -553.711        -553.715                   106972136.719   106971971.726    83354790.794    83354792.798                          54.500          46.000          46.000          52.750
G08  20392161.993    20392161.525    20392163.235    20392163.633    20392165.280         708.711         708.711         552.271         552.267         529.258   107161582.808   107161578.815    83502541.335    83502548.345    80023274.985          53.750          48.000          48.000          53.250          58.000
G09  23278453.410    23278453.128    23278453.480    23278454.342    23278457.056        3218.829        3218.829        2508.128        2508.154        2403.640   122329143.723   122329123.717    95321401.608    95321405.611    91349676.864          42.000          31.750          31.750          44.750          48.500
G11  22666369.360    22666369.183    22666367.853                                       -3351.565       -3351.565       -2611.622                                   119112715.369   119112611.387    92815028.478                                          45.750          35.750          35.750
G16  24202756.516    24202756.442    24202755.360                                        3123.575        3123.575        2434.014                                   127186391.509   127186392.521    99106292.206                                          41.500          25.250          25.250
G18  22914231.188    22914231.071    22914231.095                                       -3299.983       -3299.983       -2571.381                                   120415131.217   120415117.226    93829967.684                                          44.000          32.250          32.250
G23  24879947.078                                                                        3547.080                                                                   130745054.315                                                                          34.500
G27  21729700.896    21729700.242    21729701.181    21729701.333    21729703.877        2648.034        2648.034        2063.406        2063.409        1977.432   114190401.856   114190401.863    88979547.937    88979542.941    85272068.942          49.500          43.250          43.250          50.500          54.500
G28  23720489.177    23720488.578    23720487.079                                       -2470.011       -2470.011       -1924.677                                   124652035.292   124652032.308    97131460.912                                          43.500          27.250          27.250
G30  21826838.350    21826837.657    21826838.775    21826839.724    21826842.064       -2544.623       -2544.623       -1982.806       -1982.804       -1900.189   114700844.555   114700834.558    89377282.342    89377296.352    85653243.979          49.750          40.750          40.750          49.000          54.250
R02  23324896.036    23324895.834    23324900.362    23324901.696        3134.746        3134.746        2438.187        2438.156   124466144.123   124466134.131    96807006.274    96807001.269          45.750          45.250          41.500          40.250
R03  23109255.458    23109255.572    23109261.121    23109259.878         341.137         341.137         265.320         265.339   123705677.294   123705660.296    96215523.271    96215514.276          46.000          45.750          42.000          40.500
R10  23519309.634    23519308.406    23519317.221    23519316.238        3450.629        3450.629        2683.838        2683.858   125371193.588   125371201.601    97510927.272    97510931.272          43.750          42.750          36.250          35.000
R11  19744905.938    19744905.895    19744909.837    19744909.743        1168.564        1168.564         908.879         908.869   105510829.339   105510832.338    82063984.607    82063978.603          55.000          54.250          51.250          50.000
R12  19880348.613    19880348.356                                       -1842.741       -1842.741                                   106197277.795   106197293.800                                          52.750          51.750
R20  23370902.712    23370902.107    23370910.000    23370908.164        4098.307        4098.307        3187.566        3187.580   124974779.321   124974776.337    97202622.249    97202617.245          40.000          39.500          42.750          41.500
R21  19737348.356    19737348.169    19737352.179    19737352.426         866.181         866.181         673.706         673.706   105618580.744   105618570.748    82147786.997    82147787.999          55.250          54.500          52.000          50.250
R22  20717510.224    20717509.651    20717515.119    20717514.626       -3529.671       -3529.671       -2745.306       -2745.304   110591581.204   110591542.207    86015653.234    86015651.235          54.750          53.750          49.500          48.250
> 2019 01 25 00 03 00.0000000  0 26
E02  26082508.443    26082513.507        2118.228        1581.833   137064550.575   102353412.742          46.500          48.750
E07  27597727.715    27597736.111        2725.878        2035.558   145027066.337   108299438.305          41.000          43.750
E15  26066893.802    26066900.869       -3114.721       -2325.944   136982485.755   102292117.010          45.500          47.500
E20  25024403.473                        1221.114                   131504136.001                          35.000
E27  24823591.734    24823597.029       -1888.674       -1410.359   130448888.477    97413137.053          50.500          51.500
E30  21813565.777    21813571.228         230.749         172.322   114631108.967    85601165.632          53.000          56.000
G01  24667197.143    24667197.570    24667200.615    24667198.826    24667203.038       -3807.126       -3807.126       -2966.625       -2966.645       -2842.987   129627145.896   129627013.917   101008065.015   101008067.018    96799392.178          36.000          18.500          18.500          36.000          42.500
G04  22539149.110    22539148.489    22539148.566                                        2463.124        2463.124        1919.391                                   118444053.558   118444050.580    92294072.227                                          46.250          34.500          34.500
G07  20352073.835    20352073.693    20352072.289    20352072.196                        -693.851        -693.851        -540.649        -540.658                   106951070.513   106950905.523    83338375.575    83338377.580                          54.500          46.250          46.250          52.750
G08  20396257.089    20396256.565    20396258.305    20396258.712    20396260.321         725.965         725.965         565.698         565.699         542.130   107183102.484   107183098.490    83519309.917    83519316.924    80039344.877          53.500          48.000          48.000          53.500          58.000
G09  23296846.524    23296846.733    23296847.928    23296848.453    23296851.120        3225.211        3225.211        2513.114        2513.177        2408.458   122425804.812   122425784.805    95396721.879    95396725.879    91421858.811          41.250          31.500          31.500          44.750          47.750
G11  22647261.680    22647260.917    22647259.272                                       -3342.782       -3342.782       -2604.782                                   119012299.861   119012195.873    92736782.652                                          46.500          35.750          35.750
G16  24220591.994    24220591.922    24220590.725                                        3124.723        3124.723        2434.810                                   127280115.388   127280116.411    99179323.756                                          41.500          24.750          24.750
G18  22895417.830    22895417.528    22895417.863                                       -3290.816       -3290.816       -2564.244                                   120316269.334   120316255.340    93752932.478                                          43.250          31.500          31.500
G23  24900190.219                                                                        3546.032                                                                   130851446.740                                                                          30.000
G27  21744850.470    21744850.228    21744850.967    21744850.999    21744853.930        2659.550        2659.550        2072.361        2072.387        1986.031   114270015.190   114270015.199    89041584.309    89041579.312    85331520.466          49.000          43.250          43.250          50.250          54.750
G28  23706397.226    23706396.380    23706395.634                                       -2466.572       -2466.572       -1922.015                                   124577985.187   124577982.197    97073759.549                                          39.250          25.750          25.750
